{"type":"FeatureCollection","features":[{"type":"Feature","geometry":{"type":"Point","coordinates":[2.2887597,48.9108577]},"properties":{"mairie":"MAIRIE D'ASNIERES SUR SEINE","label_vvf":"1 fleur","adresse_1":"H\u00f4tel de Ville","adresse_2":"1 Place de l'H\u00f4tel de Ville","boite_postale":"B.P. 217","departement":92.0,"libgeo":"Hauts-de-Seine","code_postal":92602.0,"ville":"ASNIERES-SUR-SEINE CEDEX"}},{"type":"Feature","geometry":{"type":"Point","coordinates":[2.0614804,48.982059]},"properties":{"mairie":"MAIRIE D'ANDRESY","label_vvf":"2 fleurs","adresse_1":"H\u00f4tel de Ville","adresse_2":"4 Boulevard No\u00ebl Marc","boite_postale":null,"departement":78.0,"libgeo":"Yvelines","code_postal":78570.0,"ville":"ANDRESY"}},{"type":"Feature","geometry":{"type":"Point","coordinates":[2.3405498,48.9354998]},"properties":{"mairie":"MAIRIE DE L'ILE-SAINT-DENIS","label_vvf":"1 fleur","adresse_1":"H\u00f4tel de Ville","adresse_2":"1 rue M\u00e9chin","boite_postale":null,"departement":93.0,"libgeo":"Seine-Saint-Denis","code_postal":93450.0,"ville":"L'ILE-SAINT-DENIS"}},{"type":"Feature","geometry":{"type":"Point","coordinates":[2.4602221,48.7040316]},"properties":{"mairie":"MAIRIE DE MONTGERON","label_vvf":"2 fleurs","adresse_1":"H\u00f4tel de Ville","adresse_2":"112 bis avenue de la R\u00e9publique","boite_postale":null,"departement":91.0,"libgeo":"Essonne","code_postal":91230.0,"ville":"MONTGERON"}},{"type":"Feature","geometry":{"type":"Point","coordinates":[2.064579,48.843815]},"properties":{"mairie":"MAIRIE DE NOISY-LE-ROI","label_vvf":"2 fleurs","adresse_1":"H\u00f4tel de Ville","adresse_2":"37 rue Andr\u00e9 Lebourblanc","boite_postale":null,"departement":78.0,"libgeo":"Yvelines","code_postal":78590.0,"ville":"NOISY LE ROI"}},{"type":"Feature","geometry":{"type":"Point","coordinates":[2.3240154,48.6731975]},"properties":{"mairie":"MAIRIE D'EPINAY-SUR-ORGE","label_vvf":"2 fleurs","adresse_1":"H\u00f4tel de Ville","adresse_2":"8 rue de l'Eglise","boite_postale":null,"departement":91.0,"libgeo":"Essonne","code_postal":91360.0,"ville":"EPINAY SUR ORGE"}},{"type":"Feature","geometry":{"type":"Point","coordinates":[2.7942373,48.5047182]},"properties":{"mairie":"MAIRIE DU CHATELET EN BRIE","label_vvf":"3 fleurs","adresse_1":"H\u00f4tel de Ville","adresse_2":"Place de l'H\u00f4tel de Ville","boite_postale":null,"departement":77.0,"libgeo":"Seine-et-Marne","code_postal":77820.0,"ville":"LE CHATELET EN BRIE"}},{"type":"Feature","geometry":{"type":"Point","coordinates":[2.0366938,48.7679377]},"properties":{"mairie":"MAIRIE DE MONTIGNY-LE-BRETONNEUX","label_vvf":"1 fleur","adresse_1":"H\u00f4tel de Ville","adresse_2":"66 rue de la Mare aux Carats","boite_postale":null,"departement":78.0,"libgeo":"Yvelines","code_postal":78180.0,"ville":"MONTIGNY-LE-BRETONNEUX"}},{"type":"Feature","geometry":{"type":"Point","coordinates":[2.4854152,48.803446]},"properties":{"mairie":"MAIRIE DE SAINT-MAUR-DES-FOSSES","label_vvf":"3 fleurs","adresse_1":"H\u00f4tel de Ville","adresse_2":"Place Charles de Gaulle","boite_postale":null,"departement":94.0,"libgeo":"Val-de-Marne","code_postal":94107.0,"ville":"SAINT MAUR DES FOSSES CEDEX"}},{"type":"Feature","geometry":{"type":"Point","coordinates":[2.3793442,48.9151624]},"properties":{"mairie":"MAIRIE D'AUBERVILLIERS","label_vvf":"2 fleurs","adresse_1":"H\u00f4tel de Ville","adresse_2":"37 Rue du Moutier","boite_postale":null,"departement":93.0,"libgeo":"Seine-Saint-Denis","code_postal":93300.0,"ville":"AUBERVILLIERS"}},{"type":"Feature","geometry":{"type":"Point","coordinates":[2.7060266,48.2308434]},"properties":{"mairie":"MAIRIE DE BAGNEAUX-SUR-LOING","label_vvf":"2 fleurs","adresse_1":"H\u00f4tel de Ville","adresse_2":"Place de l'H\u00f4tel de Ville","boite_postale":null,"departement":77.0,"libgeo":"Seine-et-Marne","code_postal":77167.0,"ville":"BAGNEAUX SUR LOING"}},{"type":"Feature","geometry":{"type":"Point","coordinates":[2.6213207,48.8120365]},"properties":{"mairie":"MAIRIE D'EMERAINVILLE","label_vvf":"2 fleurs","adresse_1":"H\u00f4tel de Ville","adresse_2":"16 place de l'Europe","boite_postale":null,"departement":77.0,"libgeo":"Seine-et-Marne","code_postal":77184.0,"ville":"EMERAINVILLE"}},{"type":"Feature","geometry":{"type":"Point","coordinates":[2.764675,48.4487545]},"properties":{"mairie":"MAIRIE D'HERICY","label_vvf":"1 fleur","adresse_1":"H\u00f4tel de Ville","adresse_2":"6-8 rue de l'\u00c9glise","boite_postale":null,"departement":77.0,"libgeo":"Seine-et-Marne","code_postal":77850.0,"ville":"HERICY"}},{"type":"Feature","geometry":{"type":"Point","coordinates":[2.4195177,48.8054058]},"properties":{"mairie":"MAIRIE D'ALFORTVILLE","label_vvf":"3 fleurs","adresse_1":"H\u00f4tel de Ville","adresse_2":"Place Fran\u00e7ois Mitterrand","boite_postale":"BP 75","departement":94.0,"libgeo":"Val-de-Marne","code_postal":94140.0,"ville":"ALFORTVILLE"}},{"type":"Feature","geometry":{"type":"Point","coordinates":[2.0351294,48.943851]},"properties":{"mairie":"MAIRIE DE CARRIERES-SOUS-POISSY","label_vvf":"2 fleurs","adresse_1":"H\u00f4tel de Ville","adresse_2":"1 place Saint Blaise","boite_postale":null,"departement":78.0,"libgeo":"Yvelines","code_postal":78955.0,"ville":"CARRIERES SOUS POISSY"}},{"type":"Feature","geometry":{"type":"Point","coordinates":[1.9142739999999998,48.751888]},"properties":{"mairie":"MAIRIE DE COIGNIERES","label_vvf":"2 fleurs","adresse_1":"H\u00f4tel de Ville","adresse_2":"rue des Etangs","boite_postale":"CS 70521","departement":78.0,"libgeo":"Yvelines","code_postal":78317.0,"ville":"COIGNIERES CEDEX"}},{"type":"Feature","geometry":{"type":"Point","coordinates":[2.1620369999999998,48.434471]},"properties":{"mairie":"MAIRIE D'ETAMPES","label_vvf":"2 fleurs","adresse_1":"H\u00f4tel de Ville","adresse_2":"Place de l'H\u00f4tel de Ville","boite_postale":"BP 109","departement":91.0,"libgeo":"Essonne","code_postal":91152.0,"ville":"ETAMPES CEDEX"}},{"type":"Feature","geometry":{"type":"Point","coordinates":[3.0374806,48.8216022]},"properties":{"mairie":"MAIRIE DE MOUROUX","label_vvf":"1 fleur","adresse_1":"H\u00f4tel de Ville","adresse_2":"Place de la Mairie","boite_postale":null,"departement":77.0,"libgeo":"Seine-et-Marne","code_postal":77120.0,"ville":"MOUROUX"}},{"type":"Feature","geometry":{"type":"Point","coordinates":[2.3584282,48.9358318]},"properties":{"mairie":"MAIRIE DE SAINT-DENIS","label_vvf":"3 fleurs","adresse_1":"H\u00f4tel de Ville","adresse_2":"2 place victor hugo","boite_postale":"BP 269","departement":93.0,"libgeo":"Seine-Saint-Denis","code_postal":93205.0,"ville":"SAINT-DENIS CEDEX"}},{"type":"Feature","geometry":{"type":"Point","coordinates":[2.277661,48.7672873]},"properties":{"mairie":"MAIRIE DE CHATENAY-MALABRY","label_vvf":"3 fleurs","adresse_1":"H\u00f4tel de Ville","adresse_2":"26 rue du Docteur Le Savoureux","boite_postale":null,"departement":92.0,"libgeo":"Hauts-de-Seine","code_postal":92291.0,"ville":"CHATENAY MALABRY CEDEX"}},{"type":"Feature","geometry":{"type":"Point","coordinates":[2.2665352,48.6313611]},"properties":{"mairie":"MAIRIE DE LINAS","label_vvf":"2 fleurs","adresse_1":"H\u00f4tel de Ville","adresse_2":"Place Ernest Pillon","boite_postale":null,"departement":91.0,"libgeo":"Essonne","code_postal":91310.0,"ville":"LINAS"}},{"type":"Feature","geometry":{"type":"Point","coordinates":[2.2458606,48.7145089]},"properties":{"mairie":"MAIRIE DE PALAISEAU","label_vvf":"2 fleurs","adresse_1":"H\u00f4tel de Ville","adresse_2":"91 rue de Paris","boite_postale":null,"departement":91.0,"libgeo":"Essonne","code_postal":91520.0,"ville":"PALAISEAU"}},{"type":"Feature","geometry":{"type":"Point","coordinates":[2.1302176,48.8011089]},"properties":{"mairie":"MAIRIE DE VERSAILLES","label_vvf":"3 fleurs","adresse_1":"H\u00f4tel de Ville","adresse_2":"4 avenue de Paris","boite_postale":"RP 1144","departement":78.0,"libgeo":"Yvelines","code_postal":78011.0,"ville":"VERSAILLES CEDEX"}},{"type":"Feature","geometry":{"type":"Point","coordinates":[2.4470183,48.72985]},"properties":{"mairie":"MAIRIE DE VILLENEUVE-SAINT-GEORGES","label_vvf":"1 fleur","adresse_1":"H\u00f4tel de Ville","adresse_2":"20 place Pierre S\u00e9mard","boite_postale":null,"departement":94.0,"libgeo":"Val-de-Marne","code_postal":94190.0,"ville":"VILLENEUVE SAINT GEORGES"}},{"type":"Feature","geometry":{"type":"Point","coordinates":[2.545893,48.910969]},"properties":{"mairie":"MAIRIE DE CLICHY-SOUS-BOIS","label_vvf":"1 fleur","adresse_1":"H\u00f4tel de Ville","adresse_2":"Place du 11 novembre 1918","boite_postale":null,"departement":93.0,"libgeo":"Seine-Saint-Denis","code_postal":93390.0,"ville":"CLICHY-SOUS-BOIS"}},{"type":"Feature","geometry":{"type":"Point","coordinates":[1.6719596,48.9803782]},"properties":{"mairie":"MAIRIE DE BUCHELAY","label_vvf":"3 fleurs","adresse_1":"H\u00f4tel de Ville","adresse_2":"1 rue Gabriel P\u00e9ri","boite_postale":null,"departement":78.0,"libgeo":"Yvelines","code_postal":78200.0,"ville":"BUCHELAY"}},{"type":"Feature","geometry":{"type":"Point","coordinates":[2.5374449,48.9194303]},"properties":{"mairie":"MAIRIE DE LIVRY-GARGAN","label_vvf":"4 fleurs","adresse_1":"H\u00f4tel de Ville","adresse_2":"3 place Fran\u00e7ois Mitt\u00e9rand","boite_postale":"BP 56","departement":93.0,"libgeo":"Seine-Saint-Denis","code_postal":93891.0,"ville":"LIVRY-GARGAN"}},{"type":"Feature","geometry":{"type":"Point","coordinates":[2.1873819,48.6989009]},"properties":{"mairie":"MAIRIE D'ORSAY","label_vvf":"2 fleurs","adresse_1":"H\u00f4tel de Ville","adresse_2":"2 place du G\u00e9n\u00e9ral Leclerc","boite_postale":"BP 47","departement":91.0,"libgeo":"Essonne","code_postal":91400.0,"ville":"ORSAY"}},{"type":"Feature","geometry":{"type":"Point","coordinates":[2.4216094999999997,48.7247418]},"properties":{"mairie":"MAIRIE D'ABLON-SUR-SEINE","label_vvf":"1 fleur","adresse_1":"H\u00f4tel de Ville","adresse_2":"16 rue du Mar\u00e9chal Foch","boite_postale":null,"departement":94.0,"libgeo":"Val-de-Marne","code_postal":94480.0,"ville":"ABLON SUR SEINE"}},{"type":"Feature","geometry":{"type":"Point","coordinates":[2.380478,48.4374566]},"properties":{"mairie":"MAIRIE DE BOUTIGNY-SUR-ESSONNE","label_vvf":"3 fleurs","adresse_1":"H\u00f4tel de Ville","adresse_2":"11 bd Maurice Ouin","boite_postale":null,"departement":91.0,"libgeo":"Essonne","code_postal":91820.0,"ville":"BOUTIGNY SUR ESSONNE"}},{"type":"Feature","geometry":{"type":"Point","coordinates":[2.8471041,48.3888656]},"properties":{"mairie":"MAIRIE DE VERNOU-LA-CELLE","label_vvf":"1 fleur","adresse_1":"H\u00f4tel de Ville","adresse_2":"41 rue de la Mairie","boite_postale":null,"departement":77.0,"libgeo":"Seine-et-Marne","code_postal":77670.0,"ville":"VERNOU LA CELLE SUR SEINE"}},{"type":"Feature","geometry":{"type":"Point","coordinates":[2.4883129,48.8721036]},"properties":{"mairie":"MAIRIE DE ROSNY-SOUS-BOIS","label_vvf":"3 fleurs","adresse_1":"H\u00f4tel de Ville","adresse_2":"20 rue Rochebrune","boite_postale":null,"departement":93.0,"libgeo":"Seine-Saint-Denis","code_postal":93111.0,"ville":"ROSNY-SOUS-BOIS CEDEX"}},{"type":"Feature","geometry":{"type":"Point","coordinates":[2.1730631,48.7994999]},"properties":{"mairie":"MAIRIE DE VIROFLAY","label_vvf":"2 fleurs","adresse_1":"H\u00f4tel de Ville","adresse_2":"2 place du G\u00e9n\u00e9ral de Gaulle","boite_postale":null,"departement":78.0,"libgeo":"Yvelines","code_postal":78220.0,"ville":"VIROFLAY"}},{"type":"Feature","geometry":{"type":"Point","coordinates":[2.3042784,48.9024706]},"properties":{"mairie":"MAIRIE DE CLICHY-LA-GARENNE","label_vvf":"3 fleurs","adresse_1":"H\u00f4tel de Ville","adresse_2":"80 bd Jean Jaur\u00e8s","boite_postale":"BP 300","departement":92.0,"libgeo":"Hauts-de-Seine","code_postal":92112.0,"ville":"CLICHY LA GARENNE"}},{"type":"Feature","geometry":{"type":"Point","coordinates":[2.0650952,49.0641282]},"properties":{"mairie":"MAIRIE D'OSNY","label_vvf":"2 fleurs","adresse_1":"H\u00f4tel de Ville","adresse_2":"Rue William Thornley","boite_postale":"BP14","departement":95.0,"libgeo":"Val-d'Oise","code_postal":95520.0,"ville":"OSNY"}},{"type":"Feature","geometry":{"type":"Point","coordinates":[2.7042802999999997,48.8210921]},"properties":{"mairie":"MAIRIE DE FERRIERES-EN-BRIE","label_vvf":"2 fleurs","adresse_1":"H\u00f4tel de Ville","adresse_2":"Place Auguste Tr\u00e9zy","boite_postale":null,"departement":77.0,"libgeo":"Seine-et-Marne","code_postal":77164.0,"ville":"FERRIERES-EN-BRIE"}},{"type":"Feature","geometry":{"type":"Point","coordinates":[2.0563093,48.7854533]},"properties":{"mairie":"MAIRIE DE FONTENAY-LE-FLEURY","label_vvf":"1 fleur","adresse_1":"H\u00f4tel de Ville","adresse_2":"Place du 8 Mai 1945","boite_postale":null,"departement":78.0,"libgeo":"Yvelines","code_postal":78330.0,"ville":"FONTENAY LE FLEURY"}},{"type":"Feature","geometry":{"type":"Point","coordinates":[2.0987436,48.6279366]},"properties":{"mairie":"MAIRIE DE FORGES-LES-BAINS","label_vvf":"1 fleur","adresse_1":"H\u00f4tel de Ville","adresse_2":"9 rue du Docteur Babin","boite_postale":null,"departement":91.0,"libgeo":"Essonne","code_postal":91470.0,"ville":"FORGES LES BAINS"}},{"type":"Feature","geometry":{"type":"Point","coordinates":[2.4423265,48.8625448]},"properties":{"mairie":"MAIRIE DE MONTREUIL","label_vvf":"2 fleurs","adresse_1":"H\u00f4tel de Ville","adresse_2":"Place Jean Jaur\u00e8s","boite_postale":null,"departement":93.0,"libgeo":"Seine-Saint-Denis","code_postal":93105.0,"ville":"MONTREUIL"}},{"type":"Feature","geometry":{"type":"Point","coordinates":[2.9214992,48.3736248]},"properties":{"mairie":"MAIRIE DE VARENNES-SUR-SEINE","label_vvf":"2 fleurs","adresse_1":"H\u00f4tel de Ville","adresse_2":"Grande Rue","boite_postale":null,"departement":77.0,"libgeo":"Seine-et-Marne","code_postal":77130.0,"ville":"VARENNES SUR SEINE"}},{"type":"Feature","geometry":{"type":"Point","coordinates":[2.0632619,48.8900126]},"properties":{"mairie":"MAIRIE DE FOURQUEUX","label_vvf":"2 fleurs","adresse_1":"H\u00f4tel de Ville","adresse_2":"1 place de la Grille","boite_postale":null,"departement":78.0,"libgeo":"Yvelines","code_postal":78112.0,"ville":"FOURQUEUX"}},{"type":"Feature","geometry":{"type":"Point","coordinates":[2.877579,48.9587474]},"properties":{"mairie":"MAIRIE DE MEAUX","label_vvf":"4 fleurs","adresse_1":"H\u00f4tel de Ville","adresse_2":"2 Place de l'H\u00f4tel de Ville","boite_postale":null,"departement":77.0,"libgeo":"Seine-et-Marne","code_postal":77100.0,"ville":"MEAUX"}},{"type":"Feature","geometry":{"type":"Point","coordinates":[1.8917921999999998,48.8197181]},"properties":{"mairie":"MAIRIE DE VILLIERS-SAINT-FREDERIC","label_vvf":"1 fleur","adresse_1":"H\u00f4tel de Ville","adresse_2":"2 rue Charles de Gaulle","boite_postale":null,"departement":78.0,"libgeo":"Yvelines","code_postal":78640.0,"ville":"VILLIERS SAINT FREDERIC"}},{"type":"Feature","geometry":{"type":"Point","coordinates":[2.16647,48.6792779]},"properties":{"mairie":"MAIRIE DES ULIS","label_vvf":"3 fleurs","adresse_1":"H\u00f4tel de Ville","adresse_2":"Rue du Morvan BP 1011","boite_postale":null,"departement":91.0,"libgeo":"Essonne","code_postal":91940.0,"ville":"LES ULIS"}},{"type":"Feature","geometry":{"type":"Point","coordinates":[2.3328277,48.9126201]},"properties":{"mairie":"MAIRIE DE SAINT-OUEN","label_vvf":"2 fleurs","adresse_1":"H\u00f4tel de Ville","adresse_2":"6 place de la R\u00e9publique","boite_postale":null,"departement":93.0,"libgeo":"Seine-Saint-Denis","code_postal":93406.0,"ville":"SAINT OUEN CEDEX"}},{"type":"Feature","geometry":{"type":"Point","coordinates":[2.4874346,48.7742189]},"properties":{"mairie":"MAIRIE DE BONNEUIL-SUR-MARNE","label_vvf":"3 fleurs","adresse_1":"H\u00f4tel de Ville","adresse_2":"7 rue d'Estienne d'Orves","boite_postale":null,"departement":94.0,"libgeo":"Val-de-Marne","code_postal":94380.0,"ville":"BONNEUIL SUR MARNE"}},{"type":"Feature","geometry":{"type":"Point","coordinates":[2.6344833999999997,48.5148159]},"properties":{"mairie":"MAIRIE DE DAMMARIE-LES-LYS","label_vvf":"2 fleurs","adresse_1":"H\u00f4tel de Ville","adresse_2":"26 rue Charles de Gaulle","boite_postale":"BP 24","departement":77.0,"libgeo":"Seine-et-Marne","code_postal":77196.0,"ville":"DAMMARIE LES LYS CEDEX"}},{"type":"Feature","geometry":{"type":"Point","coordinates":[2.3486794,48.815419]},"properties":{"mairie":"MAIRIE DE GENTILLY","label_vvf":"1 fleur","adresse_1":"H\u00f4tel de Ville","adresse_2":"14 place Henri Barbusse","boite_postale":null,"departement":94.0,"libgeo":"Val-de-Marne","code_postal":94250.0,"ville":"GENTILLY"}},{"type":"Feature","geometry":{"type":"Point","coordinates":[2.4500325,48.9863736]},"properties":{"mairie":"MAIRIE DE GONESSE","label_vvf":"3 fleurs","adresse_1":"H\u00f4tel de Ville","adresse_2":"66 rue de Paris","boite_postale":"BP 10060","departement":95.0,"libgeo":"Val-d'Oise","code_postal":95503.0,"ville":"GONESSE CEDEX"}},{"type":"Feature","geometry":{"type":"Point","coordinates":[3.3056071,48.7814077]},"properties":{"mairie":"MAIRIE DE LA FERTE-GAUCHER","label_vvf":"1 fleur","adresse_1":"H\u00f4tel de Ville","adresse_2":"1 Place du G\u00e9n\u00e9ral de Gaulle","boite_postale":null,"departement":77.0,"libgeo":"Seine-et-Marne","code_postal":77320.0,"ville":"LA FERTE GAUCHER"}},{"type":"Feature","geometry":{"type":"Point","coordinates":[2.690372,48.3152451]},"properties":{"mairie":"MAIRIE DE GREZ-SUR-LOING","label_vvf":"2 fleurs","adresse_1":"H\u00f4tel de Ville","adresse_2":"86 rue Wilson","boite_postale":null,"departement":77.0,"libgeo":"Seine-et-Marne","code_postal":77880.0,"ville":"GREZ SUR LOING"}},{"type":"Feature","geometry":{"type":"Point","coordinates":[2.9689752,48.8058041]},"properties":{"mairie":"MAIRIE DE LA CELLE-SUR-MORIN","label_vvf":"3 fleurs","adresse_1":"H\u00f4tel de Ville","adresse_2":"Rue en Bas","boite_postale":null,"departement":77.0,"libgeo":"Seine-et-Marne","code_postal":77515.0,"ville":"LA CELLE SUR MORIN"}},{"type":"Feature","geometry":{"type":"Point","coordinates":[1.909857,49.005122]},"properties":{"mairie":"MAIRIE DE MEULAN","label_vvf":"1 fleur","adresse_1":"H\u00f4tel de Ville","adresse_2":"10 Place Brigitte Gros","boite_postale":null,"departement":78.0,"libgeo":"Yvelines","code_postal":78250.0,"ville":"MEULAN"}},{"type":"Feature","geometry":{"type":"Point","coordinates":[2.6115823000000002,48.6943638]},"properties":{"mairie":"MAIRIE DE BRIE-COMTE-ROBERT","label_vvf":"3 fleurs","adresse_1":"H\u00f4tel de Ville","adresse_2":"2 rue de Verdun","boite_postale":null,"departement":77.0,"libgeo":"Seine-et-Marne","code_postal":77170.0,"ville":"BRIE COMTE ROBERT CEDEX"}},{"type":"Feature","geometry":{"type":"Point","coordinates":[2.3665706,48.5015456]},"properties":{"mairie":"MAIRIE DE BAULNE","label_vvf":"3 fleurs","adresse_1":"H\u00f4tel de Ville","adresse_2":"86 route de Corbeil","boite_postale":null,"departement":91.0,"libgeo":"Essonne","code_postal":91590.0,"ville":"BAULNE"}},{"type":"Feature","geometry":{"type":"Point","coordinates":[2.2742397,48.7085231]},"properties":{"mairie":"MAIRIE DE CHAMPLAN","label_vvf":"2 fleurs","adresse_1":"H\u00f4tel de Ville","adresse_2":"Place de la Mairie","boite_postale":null,"departement":91.0,"libgeo":"Essonne","code_postal":91160.0,"ville":"CHAMPLAN"}},{"type":"Feature","geometry":{"type":"Point","coordinates":[2.7609522,48.9709591]},"properties":{"mairie":"MAIRIE DE CHARNY","label_vvf":"2 fleurs","adresse_1":"H\u00f4tel de Ville","adresse_2":"1 rue de l'\u00c9glise","boite_postale":null,"departement":77.0,"libgeo":"Seine-et-Marne","code_postal":77410.0,"ville":"CHARNY"}},{"type":"Feature","geometry":{"type":"Point","coordinates":[2.6876029,48.9470996]},"properties":{"mairie":"MAIRIE DE CLAYE-SOUILLY","label_vvf":"4 fleurs","adresse_1":"H\u00f4tel de Ville","adresse_2":"All\u00e9e Andr\u00e9 Benoist","boite_postale":null,"departement":77.0,"libgeo":"Seine-et-Marne","code_postal":77410.0,"ville":"CLAYE SOUILLY"}},{"type":"Feature","geometry":{"type":"Point","coordinates":[2.8963913999999997,48.9280414]},"properties":{"mairie":"MAIRIE DE NANTEUIL-LES-MEAUX","label_vvf":"2 fleurs","adresse_1":"H\u00f4tel de Ville","adresse_2":"14 rue Benjamin Brunet","boite_postale":null,"departement":77.0,"libgeo":"Seine-et-Marne","code_postal":77100.0,"ville":"NANTEUIL-LES-MEAUX"}},{"type":"Feature","geometry":{"type":"Point","coordinates":[2.4249823,48.5978434]},"properties":{"mairie":"MAIRIE DE LISSES","label_vvf":"2 fleurs","adresse_1":"H\u00f4tel de Ville","adresse_2":"2 rue Thirouin","boite_postale":null,"departement":91.0,"libgeo":"Essonne","code_postal":91090.0,"ville":"LISSES"}},{"type":"Feature","geometry":{"type":"Point","coordinates":[2.3636759,48.7126961]},"properties":{"mairie":"MAIRIE DE PARAY-VIEILLE-POSTE","label_vvf":"3 fleurs","adresse_1":"H\u00f4tel de Ville","adresse_2":"8 place Henri Barbusse","boite_postale":null,"departement":91.0,"libgeo":"Essonne","code_postal":91550.0,"ville":"PARAY VIEILLE POSTE"}},{"type":"Feature","geometry":{"type":"Point","coordinates":[2.9467219,48.9583194]},"properties":{"mairie":"MAIRIE DE TRILPORT","label_vvf":"2 fleurs","adresse_1":"H\u00f4tel de Ville","adresse_2":"5 rue du G\u00e9n\u00e9ral de Gaulle","boite_postale":null,"departement":77.0,"libgeo":"Seine-et-Marne","code_postal":77470.0,"ville":"TRILPORT"}},{"type":"Feature","geometry":{"type":"Point","coordinates":[2.1579418,48.8393618]},"properties":{"mairie":"MAIRIE DE VAUCRESSON","label_vvf":"1 fleur","adresse_1":"H\u00f4tel de Ville","adresse_2":"8 Grande Rue","boite_postale":null,"departement":92.0,"libgeo":"Hauts-de-Seine","code_postal":92420.0,"ville":"VAUCRESSON"}},{"type":"Feature","geometry":{"type":"Point","coordinates":[2.945073,48.463769]},"properties":{"mairie":"MAIRIE D'ECHOUBOULAINS","label_vvf":"1 fleur","adresse_1":"H\u00f4tel de Ville","adresse_2":"3 place de la R\u00e9sistance","boite_postale":null,"departement":77.0,"libgeo":"Seine-et-Marne","code_postal":77830.0,"ville":"ECHOUBOULAINS"}},{"type":"Feature","geometry":{"type":"Point","coordinates":[2.823775,48.8470158]},"properties":{"mairie":"MAIRIE DE BAILLY-ROMAINVILLIERS","label_vvf":"2 fleurs","adresse_1":"H\u00f4tel de Ville","adresse_2":"51 rue de Paris","boite_postale":null,"departement":77.0,"libgeo":"Seine-et-Marne","code_postal":77700.0,"ville":"BAILLY ROMAINVILLIERS"}},{"type":"Feature","geometry":{"type":"Point","coordinates":[1.8331735999999998,48.517149]},"properties":{"mairie":"MAIRIE D'ABLIS","label_vvf":"3 fleurs","adresse_1":"H\u00f4tel de Ville","adresse_2":"8 rue de la Mairie","boite_postale":null,"departement":78.0,"libgeo":"Yvelines","code_postal":78660.0,"ville":"ABLIS"}},{"type":"Feature","geometry":{"type":"Point","coordinates":[2.6717658,48.7614876]},"properties":{"mairie":"MAIRIE D'OZOIR-LA-FERRIERE","label_vvf":"3 fleurs","adresse_1":"H\u00f4tel de Ville","adresse_2":"45 avenue du G\u00e9n\u00e9ral de Gaulle","boite_postale":null,"departement":77.0,"libgeo":"Seine-et-Marne","code_postal":77330.0,"ville":"OZOIR-LA-FERRIERE"}},{"type":"Feature","geometry":{"type":"Point","coordinates":[2.6845816,48.2633049]},"properties":{"mairie":"MAIRIE DE SAINT-PIERRE-LES-NEMOURS","label_vvf":"1 fleur","adresse_1":"H\u00f4tel de Ville","adresse_2":"7 Chemin de la Messe","boite_postale":null,"departement":77.0,"libgeo":"Seine-et-Marne","code_postal":77140.0,"ville":"SAINT PIERRE LES NEMOURS"}},{"type":"Feature","geometry":{"type":"Point","coordinates":[2.070582,48.771153]},"properties":{"mairie":"MAIRIE DE GUYANCOURT","label_vvf":"1 fleur","adresse_1":"H\u00f4tel de Ville","adresse_2":"14 rue Ambroise Croizat","boite_postale":null,"departement":78.0,"libgeo":"Yvelines","code_postal":78280.0,"ville":"GUYANCOURT"}},{"type":"Feature","geometry":{"type":"Point","coordinates":[2.029151,49.0768961]},"properties":{"mairie":"MAIRIE DE BOISSY-L'AILLERIE","label_vvf":"2 fleurs","adresse_1":"H\u00f4tel de Ville","adresse_2":"9 rue de la R\u00e9publique","boite_postale":null,"departement":95.0,"libgeo":"Val-d'Oise","code_postal":95650.0,"ville":"BOISSY L'AILLERIE"}},{"type":"Feature","geometry":{"type":"Point","coordinates":[2.1653567,48.9895494]},"properties":{"mairie":"MAIRIE D'HERBLAY","label_vvf":"1 fleur","adresse_1":"H\u00f4tel de Ville","adresse_2":"43 rue du G\u00e9n\u00e9ral de Gaulle","boite_postale":null,"departement":95.0,"libgeo":"Val-d'Oise","code_postal":95220.0,"ville":"HERBLAY"}},{"type":"Feature","geometry":{"type":"Point","coordinates":[2.6076932,48.800584]},"properties":{"mairie":"MAIRIE DE PONTAULT-COMBAULT","label_vvf":"1 fleur","adresse_1":"H\u00f4tel de Ville","adresse_2":"107 Avenue R\u00e9publique","boite_postale":null,"departement":77.0,"libgeo":"Seine-et-Marne","code_postal":77347.0,"ville":"PONTAULT COMBAULT"}},{"type":"Feature","geometry":{"type":"Point","coordinates":[2.8134957,48.9008386]},"properties":{"mairie":"MAIRIE D'ESBLY","label_vvf":"1 fleur","adresse_1":"H\u00f4tel de Ville","adresse_2":"7 rue Victor Hugo","boite_postale":"BP 20","departement":77.0,"libgeo":"Seine-et-Marne","code_postal":77450.0,"ville":"ESBLY"}},{"type":"Feature","geometry":{"type":"Point","coordinates":[1.6493558,48.9746373]},"properties":{"mairie":"MAIRIE DE JOUY-MAUVOISIN","label_vvf":"2 fleurs","adresse_1":"H\u00f4tel de Ville","adresse_2":"Place de la Mairie","boite_postale":null,"departement":78.0,"libgeo":"Yvelines","code_postal":78200.0,"ville":"JOUY-MAUVOISIN"}},{"type":"Feature","geometry":{"type":"Point","coordinates":[2.2886642999999998,48.8931616]},"properties":{"mairie":"MAIRIE DE LEVALLOIS-PERRET","label_vvf":"4 fleurs","adresse_1":"H\u00f4tel de Ville","adresse_2":"Place de la R\u00e9publique","boite_postale":null,"departement":92.0,"libgeo":"Hauts-de-Seine","code_postal":92300.0,"ville":"LEVALLOIS-PERRET"}},{"type":"Feature","geometry":{"type":"Point","coordinates":[2.0440274,48.9277733]},"properties":{"mairie":"MAIRIE DE POISSY","label_vvf":"3 fleurs","adresse_1":"H\u00f4tel de Ville","adresse_2":"Place de la R\u00e9publique","boite_postale":null,"departement":78.0,"libgeo":"Yvelines","code_postal":78300.0,"ville":"POISSY"}},{"type":"Feature","geometry":{"type":"Point","coordinates":[2.0941816,48.8989295]},"properties":{"mairie":"MAIRIE DE SAINT-GERMAIN-EN-LAYE","label_vvf":"3 fleurs","adresse_1":"H\u00f4tel de Ville","adresse_2":"16 Rue de Pontoise","boite_postale":null,"departement":78.0,"libgeo":"Yvelines","code_postal":78100.0,"ville":"SAINT GERMAIN EN LAYE"}},{"type":"Feature","geometry":{"type":"Point","coordinates":[2.157974,48.940244]},"properties":{"mairie":"MAIRIE DE SARTROUVILLE","label_vvf":"3 fleurs","adresse_1":"H\u00f4tel de Ville","adresse_2":"Place de l'H\u00f4tel de Ville","boite_postale":"BP 275","departement":78.0,"libgeo":"Yvelines","code_postal":78506.0,"ville":"SARTROUVILLE"}},{"type":"Feature","geometry":{"type":"Point","coordinates":[2.2585406,48.9916222]},"properties":{"mairie":"MAIRIE D'ERMONT","label_vvf":"3 fleurs","adresse_1":"H\u00f4tel de Ville","adresse_2":"100 rue Louis Savoie","boite_postale":null,"departement":95.0,"libgeo":"Val-d'Oise","code_postal":95123.0,"ville":"ERMONT CEDEX"}},{"type":"Feature","geometry":{"type":"Point","coordinates":[2.1942507,48.5300541]},"properties":{"mairie":"MAIRIE DE MAUCHAMPS","label_vvf":"1 fleur","adresse_1":"H\u00f4tel de Ville","adresse_2":"1 place Saint Jean","boite_postale":null,"departement":91.0,"libgeo":"Essonne","code_postal":91730.0,"ville":"MAUCHAMPS"}},{"type":"Feature","geometry":{"type":"Point","coordinates":[2.6287589000000002,48.8548635]},"properties":{"mairie":"MAIRIE DE NOISIEL","label_vvf":"3 fleurs","adresse_1":"H\u00f4tel de Ville","adresse_2":"26 Place Emile Menier","boite_postale":null,"departement":77.0,"libgeo":"Seine-et-Marne","code_postal":77186.0,"ville":"NOISIEL"}},{"type":"Feature","geometry":{"type":"Point","coordinates":[2.41603,48.6536186]},"properties":{"mairie":"MAIRIE DE RIS-ORANGIS","label_vvf":"3 fleurs","adresse_1":"H\u00f4tel de Ville","adresse_2":"Place du G\u00e9n\u00e9ral de Gaulle","boite_postale":null,"departement":91.0,"libgeo":"Essonne","code_postal":91130.0,"ville":"RIS-ORANGIS"}},{"type":"Feature","geometry":{"type":"Point","coordinates":[2.4309526,48.8846726]},"properties":{"mairie":"MAIRIE DE ROMAINVILLE","label_vvf":"2 fleurs","adresse_1":"H\u00f4tel de Ville","adresse_2":"4 rue de Paris","boite_postale":null,"departement":93.0,"libgeo":"Seine-Saint-Denis","code_postal":93231.0,"ville":"ROMAINVILLE CEDEX"}},{"type":"Feature","geometry":{"type":"Point","coordinates":[2.219086,48.8438108]},"properties":{"mairie":"MAIRIE DE SAINT-CLOUD","label_vvf":"2 fleurs","adresse_1":"H\u00f4tel de Ville","adresse_2":"13 place Charles de Gaulle","boite_postale":null,"departement":92.0,"libgeo":"Hauts-de-Seine","code_postal":92210.0,"ville":"SAINT CLOUD"}},{"type":"Feature","geometry":{"type":"Point","coordinates":[2.6545959999999997,48.79075]},"properties":{"mairie":"MAIRIE DE ROISSY-EN-BRIE","label_vvf":"1 fleur","adresse_1":"H\u00f4tel de Ville","adresse_2":null,"boite_postale":null,"departement":78.0,"libgeo":"Yvelines","code_postal":77680.0,"ville":"ROISSY EN BRIE"}},{"type":"Feature","geometry":{"type":"Point","coordinates":[2.315958,48.7788678]},"properties":{"mairie":"MAIRIE DE BOURG-LA-REINE","label_vvf":"3 fleurs","adresse_1":"H\u00f4tel de Ville","adresse_2":"6 boulevard Carnot","boite_postale":null,"departement":92.0,"libgeo":"Hauts-de-Seine","code_postal":92340.0,"ville":"BOURG LA REINE"}},{"type":"Feature","geometry":{"type":"Point","coordinates":[2.5433768,48.5303778]},"properties":{"mairie":"MAIRIE DE SAINT-FARGEAU-PONTHIERRY","label_vvf":"2 fleurs","adresse_1":"H\u00f4tel de Ville","adresse_2":"69 avenue de Fontainebleau","boite_postale":null,"departement":77.0,"libgeo":"Seine-et-Marne","code_postal":77310.0,"ville":"SAINT FARGEAU PONTHIERRY"}},{"type":"Feature","geometry":{"type":"Point","coordinates":[2.106812,48.89715]},"properties":{"mairie":"MAIRIE DU PECQ","label_vvf":"3 fleurs","adresse_1":"H\u00f4tel de Ville","adresse_2":"13 Bis Quai Maurice Berteaux","boite_postale":"BP 60","departement":78.0,"libgeo":"Yvelines","code_postal":78231.0,"ville":"LE PECQ CEDEX"}},{"type":"Feature","geometry":{"type":"Point","coordinates":[2.187685,48.987598]},"properties":{"mairie":"MAIRIE DE MONTIGNY-LES-CORMEILLES","label_vvf":"1 fleur","adresse_1":"H\u00f4tel de Ville","adresse_2":"14 rue Fortun\u00e9-Charlot","boite_postale":"BP 90237","departement":95.0,"libgeo":"Val-d'Oise","code_postal":95370.0,"ville":"MONTIGNY LES CORMEILLES"}},{"type":"Feature","geometry":{"type":"Point","coordinates":[2.4803666,48.7494264]},"properties":{"mairie":"MAIRIE DE LIMEIL-BREVANNES","label_vvf":"1 fleur","adresse_1":"H\u00f4tel de Ville","adresse_2":"2 place Charles de Gaulle","boite_postale":null,"departement":94.0,"libgeo":"Val-de-Marne","code_postal":94450.0,"ville":"LIMEIL BREVANNES"}},{"type":"Feature","geometry":{"type":"Point","coordinates":[2.3993368999999998,48.9719166]},"properties":{"mairie":"MAIRIE DE GARGES-LES-GONESSE","label_vvf":"2 fleurs","adresse_1":"H\u00f4tel de Ville","adresse_2":"8 place de l'H\u00f4tel de Ville","boite_postale":"BP2","departement":95.0,"libgeo":"Val-d'Oise","code_postal":95141.0,"ville":"GARGES-LES-GONESSE CEDEX"}},{"type":"Feature","geometry":{"type":"Point","coordinates":[2.4734199,49.0327681]},"properties":{"mairie":"MAIRIE DE GOUSSAINVILLE","label_vvf":"2 fleurs","adresse_1":"H\u00f4tel de Ville","adresse_2":"Place de la Charmeuse","boite_postale":null,"departement":95.0,"libgeo":"Val-d'Oise","code_postal":95191.0,"ville":"GOUSSAINVILLE CEDEX"}},{"type":"Feature","geometry":{"type":"Point","coordinates":[2.602327,48.852306]},"properties":{"mairie":"MAIRIE DE CHAMPS-SUR-MARNE","label_vvf":"3 fleurs","adresse_1":"H\u00f4tel de Ville","adresse_2":"1 rue de la mairie","boite_postale":"BP 1 Champs-sur-Marne","departement":77.0,"libgeo":"Seine-et-Marne","code_postal":77427.0,"ville":"MARNE LA VALLEE CEDEX 2"}},{"type":"Feature","geometry":{"type":"Point","coordinates":[2.445616,48.905018]},"properties":{"mairie":"MAIRIE DE BOBIGNY","label_vvf":"2 fleurs","adresse_1":"H\u00f4tel de Ville","adresse_2":"31 Avenue du Pr\u00e9sident Salvador-Allende","boite_postale":null,"departement":93.0,"libgeo":"Seine-Saint-Denis","code_postal":93009.0,"ville":"BOBIGNY CEDEX"}},{"type":"Feature","geometry":{"type":"Point","coordinates":[2.5883148,48.5267975]},"properties":{"mairie":"MAIRIE DE BOISSISE-LA-BERTRAND","label_vvf":"1 fleur","adresse_1":"H\u00f4tel de Ville","adresse_2":"2 rue Fran\u00e7ois Rolin","boite_postale":null,"departement":77.0,"libgeo":"Seine-et-Marne","code_postal":77350.0,"ville":"BOISSISE-LA-BERTRAND"}},{"type":"Feature","geometry":{"type":"Point","coordinates":[2.2892967,48.9103547]},"properties":{"mairie":"MAIRIE DE COURBEVOIE","label_vvf":"4 fleurs","adresse_1":"H\u00f4tel de Ville","adresse_2":"Place de l'H\u00f4tel de Ville","boite_postale":null,"departement":92.0,"libgeo":"Hauts-de-Seine","code_postal":92401.0,"ville":"COURBEVOIE CEDEX"}},{"type":"Feature","geometry":{"type":"Point","coordinates":[1.8511175999999998,48.9931707]},"properties":{"mairie":"MAIRIE DE GARGENVILLE","label_vvf":"2 fleurs","adresse_1":"H\u00f4tel de Ville","adresse_2":"15 place du 11 Novembre 1918","boite_postale":null,"departement":78.0,"libgeo":"Yvelines","code_postal":78440.0,"ville":"GARGENVILLE"}},{"type":"Feature","geometry":{"type":"Point","coordinates":[2.5131473,48.747934]},"properties":{"mairie":"MAIRIE DE BOISSY-SAINT-LEGER","label_vvf":"3 fleurs","adresse_1":"H\u00f4tel de Ville","adresse_2":"7 boulevard L\u00e9on R\u00e9villon","boite_postale":null,"departement":94.0,"libgeo":"Val-de-Marne","code_postal":94470.0,"ville":"BOISSY-SAINT-LEGER"}},{"type":"Feature","geometry":{"type":"Point","coordinates":[2.2896549999999998,48.799848]},"properties":{"mairie":"MAIRIE DE CHATILLON","label_vvf":"3 fleurs","adresse_1":"H\u00f4tel de Ville","adresse_2":"1 place de la Lib\u00e9ration","boite_postale":"BP 88","departement":92.0,"libgeo":"Hauts-de-Seine","code_postal":92323.0,"ville":"CHATILLON CEDEX"}},{"type":"Feature","geometry":{"type":"Point","coordinates":[2.59024,48.877856]},"properties":{"mairie":"MAIRIE DE CHELLES","label_vvf":"3 fleurs","adresse_1":"H\u00f4tel de Ville","adresse_2":"Parc du Souvenir Emile Fouchard","boite_postale":null,"departement":77.0,"libgeo":"Seine-et-Marne","code_postal":77505.0,"ville":"CHELLES CEDEX"}},{"type":"Feature","geometry":{"type":"Point","coordinates":[2.5419162,48.701506]},"properties":{"mairie":"MAIRIE DE MANDRES-LES-ROSES","label_vvf":"1 fleur","adresse_1":"H\u00f4tel de Ville","adresse_2":"4 rue du G\u00e9n\u00e9ral Leclerc","boite_postale":null,"departement":94.0,"libgeo":"Val-de-Marne","code_postal":94520.0,"ville":"MANDRES LES ROSES"}},{"type":"Feature","geometry":{"type":"Point","coordinates":[2.2067202,48.8923373]},"properties":{"mairie":"MAIRIE DE NANTERRE","label_vvf":"2 fleurs","adresse_1":"H\u00f4tel de Ville","adresse_2":"88-188 rue du 8 Mai 1945","boite_postale":null,"departement":92.0,"libgeo":"Hauts-de-Seine","code_postal":92000.0,"ville":"NANTERRE"}},{"type":"Feature","geometry":{"type":"Point","coordinates":[2.0793698,48.8390927]},"properties":{"mairie":"MAIRIE DE BAILLY","label_vvf":"1 fleur","adresse_1":"H\u00f4tel de Ville","adresse_2":"1 rue des Ch\u00eanes","boite_postale":null,"departement":78.0,"libgeo":"Yvelines","code_postal":78870.0,"ville":"BAILLY"}},{"type":"Feature","geometry":{"type":"Point","coordinates":[2.3283182,48.9748765]},"properties":{"mairie":"MAIRIE DE DEUIL-LA-BARRE","label_vvf":"2 fleurs","adresse_1":"H\u00f4tel de Ville","adresse_2":"36 rue Charles de Gaulle","boite_postale":null,"departement":95.0,"libgeo":"Val-d'Oise","code_postal":95170.0,"ville":"DEUIL-LA-BARRE"}},{"type":"Feature","geometry":{"type":"Point","coordinates":[1.986654,48.8213381]},"properties":{"mairie":"MAIRIE DES CLAYES-SOUS-BOIS","label_vvf":"2 fleurs","adresse_1":"H\u00f4tel de Ville","adresse_2":"Place Charles de Gaulle","boite_postale":null,"departement":78.0,"libgeo":"Yvelines","code_postal":78340.0,"ville":"LES CLAYES-SOUS-BOIS"}},{"type":"Feature","geometry":{"type":"Point","coordinates":[2.5410886,48.8257452]},"properties":{"mairie":"MAIRIE DE VILLIERS-SUR-MARNE","label_vvf":"2 fleurs","adresse_1":"H\u00f4tel de Ville","adresse_2":"Place de l'H\u00f4tel de Ville","boite_postale":null,"departement":94.0,"libgeo":"Val-de-Marne","code_postal":94350.0,"ville":"VILLIERS SUR MARNE"}},{"type":"Feature","geometry":{"type":"Point","coordinates":[2.4673194,48.4031739]},"properties":{"mairie":"MAIRIE DE MILLY-LA-FORET","label_vvf":"1 fleur","adresse_1":"H\u00f4tel de Ville","adresse_2":"Place de la R\u00e9publique","boite_postale":null,"departement":91.0,"libgeo":"Essonne","code_postal":91490.0,"ville":"MILLY-LA-FORET"}},{"type":"Feature","geometry":{"type":"Point","coordinates":[2.6522490999999997,48.849672]},"properties":{"mairie":"MAIRIE DE TORCY","label_vvf":"2 fleurs","adresse_1":"H\u00f4tel de Ville","adresse_2":"Place de l'Appel du 18 Juin 1940","boite_postale":null,"departement":77.0,"libgeo":"Seine-et-Marne","code_postal":77207.0,"ville":"TORCY CEDEX 01"}},{"type":"Feature","geometry":{"type":"Point","coordinates":[2.363596,48.79187]},"properties":{"mairie":"MAIRIE DE VILLEJUIF","label_vvf":"1 fleur","adresse_1":"H\u00f4tel de Ville","adresse_2":"2 esplanade Pierre-Yves Cosnier","boite_postale":null,"departement":94.0,"libgeo":"Val-de-Marne","code_postal":94807.0,"ville":"VILLEJUIF CEDEX"}},{"type":"Feature","geometry":{"type":"Point","coordinates":[2.4079871,48.7350316]},"properties":{"mairie":"MAIRIE DE VILLENEUVE-LE-ROI","label_vvf":"2 fleurs","adresse_1":"H\u00f4tel de Ville","adresse_2":"1 place de la Vieille Eglise","boite_postale":null,"departement":94.0,"libgeo":"Val-de-Marne","code_postal":94290.0,"ville":"VILLENEUVE LE ROI"}},{"type":"Feature","geometry":{"type":"Point","coordinates":[2.5987081,48.4941555]},"properties":{"mairie":"MAIRIE DE VILLIERS-EN-BIERE","label_vvf":"1 fleur","adresse_1":"H\u00f4tel de Ville","adresse_2":"1 rue Cambot","boite_postale":null,"departement":77.0,"libgeo":"Seine-et-Marne","code_postal":77190.0,"ville":"VILLIERS EN BIERE"}},{"type":"Feature","geometry":{"type":"Point","coordinates":[2.3041662,48.79848]},"properties":{"mairie":"MAIRIE DE BAGNEUX","label_vvf":"3 fleurs","adresse_1":"H\u00f4tel de Ville","adresse_2":"57 Avenue Henri-Ravera","boite_postale":null,"departement":92.0,"libgeo":"Hauts-de-Seine","code_postal":92220.0,"ville":"BAGNEUX"}},{"type":"Feature","geometry":{"type":"Point","coordinates":[2.1706266,48.5658169]},"properties":{"mairie":"MAIRIE DE BREUILLET","label_vvf":"1 fleur","adresse_1":"H\u00f4tel de Ville","adresse_2":"3 rue de la Gare","boite_postale":null,"departement":91.0,"libgeo":"Essonne","code_postal":91650.0,"ville":"BREUILLET"}},{"type":"Feature","geometry":{"type":"Point","coordinates":[2.2547891,48.9229955]},"properties":{"mairie":"MAIRIE DE COLOMBES","label_vvf":"3 fleurs","adresse_1":"H\u00f4tel de Ville","adresse_2":"Place de la R\u00e9publique","boite_postale":null,"departement":92.0,"libgeo":"Hauts-de-Seine","code_postal":92701.0,"ville":"COLOMBES CEDEX"}},{"type":"Feature","geometry":{"type":"Point","coordinates":[2.5932406,48.626733]},"properties":{"mairie":"MAIRIE DE MOISSY-CRAMAYEL","label_vvf":"3 fleurs","adresse_1":"H\u00f4tel de Ville","adresse_2":"6 place du Souvenir","boite_postale":"BP 24","departement":77.0,"libgeo":"Seine-et-Marne","code_postal":77557.0,"ville":"MOISSY-CRAMAYEL"}},{"type":"Feature","geometry":{"type":"Point","coordinates":[2.3260068,48.6408872]},"properties":{"mairie":"MAIRIE DE SAINTE GENEVIEVE DES BOIS","label_vvf":"4 fleurs","adresse_1":"H\u00f4tel de Ville","adresse_2":"Place Roger Perriaud","boite_postale":null,"departement":91.0,"libgeo":"Essonne","code_postal":91700.0,"ville":"SAINTE GENEVIEVE DES BOIS"}},{"type":"Feature","geometry":{"type":"Point","coordinates":[2.2840823,49.1416945]},"properties":{"mairie":"MAIRIE DE BEAUMONT-SUR-OISE","label_vvf":"1 fleur","adresse_1":"H\u00f4tel de Ville","adresse_2":"29 rue de Paris","boite_postale":null,"departement":95.0,"libgeo":"Val-d'Oise","code_postal":95260.0,"ville":"BEAUMONT-SUR-OISE"}},{"type":"Feature","geometry":{"type":"Point","coordinates":[1.765858,48.91894]},"properties":{"mairie":"MAIRIE DE GOUSSONVILLE","label_vvf":"1 fleur","adresse_1":"H\u00f4tel de Ville","adresse_2":"2 rue du Bois de l'Aulnaye","boite_postale":null,"departement":78.0,"libgeo":"Yvelines","code_postal":78930.0,"ville":"GOUSSONVILLE"}},{"type":"Feature","geometry":{"type":"Point","coordinates":[2.4263436,48.8180226]},"properties":{"mairie":"MAIRIE DE SAINT-MAURICE","label_vvf":"2 fleurs","adresse_1":"H\u00f4tel de Ville","adresse_2":"55 rue du Mar\u00e9chal Leclerc","boite_postale":null,"departement":94.0,"libgeo":"Val-de-Marne","code_postal":94410.0,"ville":"SAINT MAURICE"}},{"type":"Feature","geometry":{"type":"Point","coordinates":[2.3026443,48.6302877]},"properties":{"mairie":"MAIRIE DE SAINT-MICHEL-SUR-ORGE","label_vvf":"2 fleurs","adresse_1":"H\u00f4tel de Ville","adresse_2":"16 rue de l'Eglise","boite_postale":null,"departement":91.0,"libgeo":"Essonne","code_postal":91241.0,"ville":"SAINT MICHEL SUR ORGE"}},{"type":"Feature","geometry":{"type":"Point","coordinates":[2.2943438,48.9258469]},"properties":{"mairie":"MAIRIE DE GENNEVILLIERS","label_vvf":"3 fleurs","adresse_1":"H\u00f4tel de Ville","adresse_2":"177 avenue Gabriel P\u00e9ri","boite_postale":null,"departement":92.0,"libgeo":"Hauts-de-Seine","code_postal":92230.0,"ville":"GENNEVILLIERS"}},{"type":"Feature","geometry":{"type":"Point","coordinates":[2.7357293,48.1832689]},"properties":{"mairie":"MAIRIE DE SOUPPES-SUR-LOING","label_vvf":"1 fleur","adresse_1":"H\u00f4tel de Ville","adresse_2":"19 avenue du Mar\u00e9chal Leclerc","boite_postale":null,"departement":77.0,"libgeo":"Seine-et-Marne","code_postal":77460.0,"ville":"SOUPPES SUR LOING"}},{"type":"Feature","geometry":{"type":"Point","coordinates":[2.4996776,48.9344024]},"properties":{"mairie":"MAIRIE DE DRANCY","label_vvf":"3 fleurs","adresse_1":"H\u00f4tel de Ville","adresse_2":"Place de l'H\u00f4tel de Ville","boite_postale":null,"departement":93.0,"libgeo":"Seine-Saint-Denis","code_postal":93700.0,"ville":"DRANCY"}},{"type":"Feature","geometry":{"type":"Point","coordinates":[2.3266483,49.027332]},"properties":{"mairie":"MAIRIE DE DOMONT","label_vvf":"3 fleurs","adresse_1":"H\u00f4tel de Ville","adresse_2":"47 rue de la Mairie","boite_postale":null,"departement":95.0,"libgeo":"Val-d'Oise","code_postal":95330.0,"ville":"DOMONT"}},{"type":"Feature","geometry":{"type":"Point","coordinates":[2.7415198,48.9376321]},"properties":{"mairie":"MAIRIE DE FRESNES-SUR-MARNE","label_vvf":"1 fleur","adresse_1":"H\u00f4tel de Ville","adresse_2":"2 rue de l'\u00c9glise","boite_postale":null,"departement":77.0,"libgeo":"Seine-et-Marne","code_postal":77410.0,"ville":"FRESNES SUR MARNE"}},{"type":"Feature","geometry":{"type":"Point","coordinates":[2.1995218,48.9760299]},"properties":{"mairie":"MAIRIE DE CORMEILLES-EN-PARISIS","label_vvf":"3 fleurs","adresse_1":"H\u00f4tel de Ville","adresse_2":"3 avenue Maurice Berteaux","boite_postale":null,"departement":95.0,"libgeo":"Val-d'Oise","code_postal":95240.0,"ville":"CORMEILLES EN PARISIS"}},{"type":"Feature","geometry":{"type":"Point","coordinates":[2.6366717,48.8351965]},"properties":{"mairie":"MAIRIE DE LOGNES","label_vvf":"2 fleurs","adresse_1":"H\u00f4tel de Ville","adresse_2":"6 Grande all\u00e9e Charmilles","boite_postale":null,"departement":77.0,"libgeo":"Seine-et-Marne","code_postal":77185.0,"ville":"LOGNES"}},{"type":"Feature","geometry":{"type":"Point","coordinates":[2.639576,48.8732554]},"properties":{"mairie":"MAIRIE DE VAIRES-SUR-MARNE","label_vvf":"3 fleurs","adresse_1":"H\u00f4tel de Ville","adresse_2":"26 boulevard de Lorraine","boite_postale":null,"departement":77.0,"libgeo":"Seine-et-Marne","code_postal":77360.0,"ville":"VAIRES-SUR-MARNE"}},{"type":"Feature","geometry":{"type":"Point","coordinates":[2.3750816,48.6705276]},"properties":{"mairie":"MAIRIE DE VIRY-CHATILLON","label_vvf":"3 fleurs","adresse_1":"H\u00f4tel de Ville","adresse_2":"28 place de la R\u00e9publique","boite_postale":"BP 43","departement":91.0,"libgeo":"Essonne","code_postal":91178.0,"ville":"VIRY CHATILLON"}},{"type":"Feature","geometry":{"type":"Point","coordinates":[2.694859,49.03702]},"properties":{"mairie":"MAIRIE DE SAINT-MARD","label_vvf":"1 fleur","adresse_1":"H\u00f4tel de Ville","adresse_2":"Rue de la Mairie","boite_postale":null,"departement":77.0,"libgeo":"Seine-et-Marne","code_postal":77230.0,"ville":"SAINT MARD"}},{"type":"Feature","geometry":{"type":"Point","coordinates":[2.2180793,49.1122987]},"properties":{"mairie":"MAIRIE DE L'ISLE-ADAM","label_vvf":"3 fleurs","adresse_1":"H\u00f4tel de Ville","adresse_2":"45 Grande Rue","boite_postale":"B.P. 90083","departement":95.0,"libgeo":"Val-d'Oise","code_postal":95290.0,"ville":"L'ISLE-ADAM"}},{"type":"Feature","geometry":{"type":"Point","coordinates":[2.3320049,48.7046755]},"properties":{"mairie":"MAIRIE DE MORANGIS","label_vvf":"2 fleurs","adresse_1":"H\u00f4tel de Ville","adresse_2":"12 avenue de la R\u00e9publique","boite_postale":null,"departement":91.0,"libgeo":"Essonne","code_postal":91420.0,"ville":"MORANGIS"}},{"type":"Feature","geometry":{"type":"Point","coordinates":[3.2318774,48.8462331]},"properties":{"mairie":"MAIRIE DE REBAIS","label_vvf":"1 fleur","adresse_1":"H\u00f4tel de Ville","adresse_2":"2 rue de l' H\u00f4tel de Ville","boite_postale":null,"departement":77.0,"libgeo":"Seine-et-Marne","code_postal":77510.0,"ville":"REBAIS"}},{"type":"Feature","geometry":{"type":"Point","coordinates":[2.1481415,48.5294082]},"properties":{"mairie":"MAIRIE DE SOUZY-LA-BRICHE","label_vvf":"2 fleurs","adresse_1":"H\u00f4tel de Ville","adresse_2":"4 chemin des Sources","boite_postale":null,"departement":91.0,"libgeo":"Essonne","code_postal":91580.0,"ville":"SOUZY LA BRICHE"}},{"type":"Feature","geometry":{"type":"Point","coordinates":[2.021423,49.030038]},"properties":{"mairie":"MAIRIE DE VAUREAL","label_vvf":"3 fleurs","adresse_1":"H\u00f4tel de Ville","adresse_2":"1 place du Coeur Battant","boite_postale":null,"departement":95.0,"libgeo":"Val-d'Oise","code_postal":95490.0,"ville":"VAUREAL"}},{"type":"Feature","geometry":{"type":"Point","coordinates":[2.3001671,49.0054784]},"properties":{"mairie":"MAIRIE D'ANDILLY","label_vvf":"2 fleurs","adresse_1":"H\u00f4tel de Ville","adresse_2":"Rue Ren\u00e9 Cassin","boite_postale":null,"departement":95.0,"libgeo":"Val-d'Oise","code_postal":95580.0,"ville":"ANDILLY"}},{"type":"Feature","geometry":{"type":"Point","coordinates":[2.1818082,48.4466854]},"properties":{"mairie":"MAIRIE DE MORIGNY-CHAMPIGNY","label_vvf":"2 fleurs","adresse_1":"H\u00f4tel de Ville","adresse_2":"8 rue de la Mairie","boite_postale":null,"departement":91.0,"libgeo":"Essonne","code_postal":91150.0,"ville":"MORIGNY-CHAMPIGNY"}},{"type":"Feature","geometry":{"type":"Point","coordinates":[2.2249946,48.87097]},"properties":{"mairie":"MAIRIE DE SURESNES","label_vvf":"3 fleurs","adresse_1":"H\u00f4tel de Ville","adresse_2":"2 rue Carnot","boite_postale":"BP 24","departement":92.0,"libgeo":"Hauts-de-Seine","code_postal":92150.0,"ville":"SURESNES"}},{"type":"Feature","geometry":{"type":"Point","coordinates":[2.301361,49.1611088]},"properties":{"mairie":"MAIRIE DE BERNES-SUR-OISE","label_vvf":"3 fleurs","adresse_1":"H\u00f4tel de Ville","adresse_2":"Place de la Mairie","boite_postale":null,"departement":95.0,"libgeo":"Val-d'Oise","code_postal":95340.0,"ville":"BERNES SUR OISE"}},{"type":"Feature","geometry":{"type":"Point","coordinates":[2.4298713,48.8008625]},"properties":{"mairie":"MAIRIE DE MAISONS ALFORT","label_vvf":"4 fleurs","adresse_1":"H\u00f4tel de Ville","adresse_2":"118 Av du G\u00e9n\u00e9ral de Gaulle","boite_postale":null,"departement":94.0,"libgeo":"Val-de-Marne","code_postal":94701.0,"ville":"MAISONS ALFORT CEDEX"}},{"type":"Feature","geometry":{"type":"Point","coordinates":[2.739092,48.856594]},"properties":{"mairie":"MAIRIE DE CHANTELOUP-EN-BRIE","label_vvf":"1 fleur","adresse_1":"H\u00f4tel de Ville","adresse_2":"1 place Antoinette-Chocq","boite_postale":null,"departement":77.0,"libgeo":"Seine-et-Marne","code_postal":77600.0,"ville":"MARNE-LA-VALLEE CEDEX 03"}},{"type":"Feature","geometry":{"type":"Point","coordinates":[2.7009635,48.4047588]},"properties":{"mairie":"MAIRIE DE FONTAINEBLEAU","label_vvf":"2 fleurs","adresse_1":"H\u00f4tel de Ville","adresse_2":"40 rue Grande","boite_postale":null,"departement":77.0,"libgeo":"Seine-et-Marne","code_postal":77300.0,"ville":"FONTAINEBLEAU"}},{"type":"Feature","geometry":{"type":"Point","coordinates":[2.4513005,48.8900959]},"properties":{"mairie":"MAIRIE DE NOISY-LE-SEC","label_vvf":"1 fleur","adresse_1":"H\u00f4tel de Ville","adresse_2":"Place du Mar\u00e9chal Foch","boite_postale":null,"departement":93.0,"libgeo":"Seine-Saint-Denis","code_postal":93134.0,"ville":"NOISY LE SEC CEDEX"}},{"type":"Feature","geometry":{"type":"Point","coordinates":[2.1003972,49.0511186]},"properties":{"mairie":"MAIRIE DE PONTOISE","label_vvf":"2 fleurs","adresse_1":"H\u00f4tel de Ville","adresse_2":"2 rue Victor Hugo","boite_postale":"B.P. 109","departement":95.0,"libgeo":"Val-d'Oise","code_postal":95300.0,"ville":"PONTOISE"}},{"type":"Feature","geometry":{"type":"Point","coordinates":[2.347828,48.748531]},"properties":{"mairie":"MAIRIE DE RUNGIS","label_vvf":"4 fleurs","adresse_1":"H\u00f4tel de Ville","adresse_2":"5 rue Sainte-Genevi\u00e8ve","boite_postale":null,"departement":94.0,"libgeo":"Val-de-Marne","code_postal":94150.0,"ville":"RUNGIS"}},{"type":"Feature","geometry":{"type":"Point","coordinates":[2.1818772,48.8253897]},"properties":{"mairie":"MAIRIE DE VILLE D'AVRAY","label_vvf":"1 fleur","adresse_1":"H\u00f4tel de Ville","adresse_2":"13 route de Saint-Cloud","boite_postale":null,"departement":92.0,"libgeo":"Hauts-de-Seine","code_postal":92410.0,"ville":"VILLE D'AVRAY"}},{"type":"Feature","geometry":{"type":"Point","coordinates":[2.236654,48.6964029]},"properties":{"mairie":"MAIRIE DE VILLEBON-SUR-YVETTE","label_vvf":"3 fleurs","adresse_1":"H\u00f4tel de Ville","adresse_2":"Place G\u00e9rard Nevers","boite_postale":"BP 1","departement":91.0,"libgeo":"Essonne","code_postal":91141.0,"ville":"VILLEBON SUR YVETTE"}},{"type":"Feature","geometry":{"type":"Point","coordinates":[2.2678038,48.9143993]},"properties":{"mairie":"MAIRIE DE BOIS-COLOMBES","label_vvf":"3 fleurs","adresse_1":"H\u00f4tel de Ville","adresse_2":"15 rue Charles Duflos","boite_postale":null,"departement":92.0,"libgeo":"Hauts-de-Seine","code_postal":92270.0,"ville":"BOIS COLOMBES"}},{"type":"Feature","geometry":{"type":"Point","coordinates":[2.1246662,48.7748112]},"properties":{"mairie":"MAIRIE DE BUC","label_vvf":"2 fleurs","adresse_1":"H\u00f4tel de Ville","adresse_2":"3 rue des Fr\u00e8res Robin","boite_postale":"B.P. 90236","departement":78.0,"libgeo":"Yvelines","code_postal":78532.0,"ville":"BUC CEDEX"}},{"type":"Feature","geometry":{"type":"Point","coordinates":[2.094985,49.02458]},"properties":{"mairie":"MAIRIE D'ERAGNY-SUR-OISE","label_vvf":"2 fleurs","adresse_1":"H\u00f4tel de Ville","adresse_2":"Place Louis Don Marino","boite_postale":"BP 70021 ERAGNY-SUR-OISE","departement":95.0,"libgeo":"Val-d'Oise","code_postal":95610.0,"ville":"ERAGNY-SUR-OISE"}},{"type":"Feature","geometry":{"type":"Point","coordinates":[2.9214886,48.3126847]},"properties":{"mairie":"MAIRIE DE FLAGY","label_vvf":"2 fleurs","adresse_1":"H\u00f4tel de Ville","adresse_2":"5 rue Po\u00ealon","boite_postale":null,"departement":77.0,"libgeo":"Seine-et-Marne","code_postal":77940.0,"ville":"FLAGY"}},{"type":"Feature","geometry":{"type":"Point","coordinates":[2.5182143999999997,48.7709132]},"properties":{"mairie":"MAIRIE DE LA QUEUE-EN-BRIE","label_vvf":"1 fleur","adresse_1":"H\u00f4tel de Ville","adresse_2":"Place du 18 Juin 1940","boite_postale":null,"departement":94.0,"libgeo":"Val-de-Marne","code_postal":94510.0,"ville":"LA QUEUE-EN-BRIE"}},{"type":"Feature","geometry":{"type":"Point","coordinates":[2.3846182,49.0014803]},"properties":{"mairie":"MAIRIE DE VILLIERS-LE-BEL","label_vvf":"1 fleur","adresse_1":"H\u00f4tel de Ville","adresse_2":"32 rue de la R\u00e9publique","boite_postale":null,"departement":95.0,"libgeo":"Val-d'Oise","code_postal":95400.0,"ville":"VILLIERS LE BEL"}},{"type":"Feature","geometry":{"type":"Point","coordinates":[2.7846783999999998,48.4093467]},"properties":{"mairie":"MAIRIE DE THOMERY","label_vvf":"1 fleur","adresse_1":"H\u00f4tel de Ville","adresse_2":"9 rue de la R\u00e9publique","boite_postale":null,"departement":77.0,"libgeo":"Seine-et-Marne","code_postal":77810.0,"ville":"THOMERY"}},{"type":"Feature","geometry":{"type":"Point","coordinates":[2.4697826,48.7443358]},"properties":{"mairie":"MAIRIE DE VALENTON","label_vvf":"1 fleur","adresse_1":"H\u00f4tel de Ville","adresse_2":"48 Rue du Colonel Fabien","boite_postale":null,"departement":94.0,"libgeo":"Val-de-Marne","code_postal":94460.0,"ville":"VALENTON"}},{"type":"Feature","geometry":{"type":"Point","coordinates":[2.477827,48.137525]},"properties":{"mairie":"MAIRIE DE BEAUMONT-DU-GATINAIS","label_vvf":"1 fleur","adresse_1":"H\u00f4tel de Ville","adresse_2":"1-3, rue Montgaudier","boite_postale":null,"departement":77.0,"libgeo":"Seine-et-Marne","code_postal":77890.0,"ville":"BEAUMONT DU GATINAIS"}},{"type":"Feature","geometry":{"type":"Point","coordinates":[2.678613,49.054138]},"properties":{"mairie":"MAIRIE DE DAMMARTIN-EN-GOELE","label_vvf":"1 fleur","adresse_1":"H\u00f4tel de Ville","adresse_2":"79 rue du G\u00e9n\u00e9ral de Gaulle","boite_postale":null,"departement":77.0,"libgeo":"Seine-et-Marne","code_postal":77230.0,"ville":"DAMMARTIN EN GOELE"}},{"type":"Feature","geometry":{"type":"Point","coordinates":[1.9411942999999998,49.0399635]},"properties":{"mairie":"MAIRIE DES MUREAUX","label_vvf":"3 fleurs","adresse_1":"H\u00f4tel de Ville","adresse_2":"Place de la liberation","boite_postale":null,"departement":78.0,"libgeo":"Yvelines","code_postal":78130.0,"ville":"LES MUREAUX"}},{"type":"Feature","geometry":{"type":"Point","coordinates":[2.4803692,48.7494388]},"properties":{"mairie":"MAIRIE DE VILLECRESNES","label_vvf":"2 fleurs","adresse_1":"H\u00f4tel de Ville","adresse_2":"Place Charles de Gaulle","boite_postale":null,"departement":94.0,"libgeo":"Val-de-Marne","code_postal":94440.0,"ville":"VILLECRESNES"}},{"type":"Feature","geometry":{"type":"Point","coordinates":[1.8163474,49.0300181]},"properties":{"mairie":"MAIRIE DE BRUEIL-EN-VEXIN","label_vvf":"1 fleur","adresse_1":"H\u00f4tel de Ville","adresse_2":"14 rue de l'\u00c9glise","boite_postale":null,"departement":78.0,"libgeo":"Yvelines","code_postal":78440.0,"ville":"BRUEIL EN VEXIN"}},{"type":"Feature","geometry":{"type":"Point","coordinates":[2.2462853,48.90691]},"properties":{"mairie":"MAIRIE DE LA GARENNE-COLOMBES","label_vvf":"2 fleurs","adresse_1":"H\u00f4tel de Ville","adresse_2":"68 boulevard de la R\u00e9publique","boite_postale":null,"departement":92.0,"libgeo":"Hauts-de-Seine","code_postal":92250.0,"ville":"LA GARENNE-COLOMBES"}},{"type":"Feature","geometry":{"type":"Point","coordinates":[2.1001302,49.0502465]},"properties":{"mairie":"MAIRIE DE CERGY","label_vvf":"3 fleurs","adresse_1":"H\u00f4tel de Ville","adresse_2":"3 place de l'H\u00f4tel de Ville","boite_postale":"BP 48000 Cergy","departement":95.0,"libgeo":"Val-d'Oise","code_postal":95801.0,"ville":"CERGY-PONTOISE CEDEX"}},{"type":"Feature","geometry":{"type":"Point","coordinates":[2.2171836,48.5909568]},"properties":{"mairie":"MAIRIE D'OLLAINVILLE","label_vvf":"2 fleurs","adresse_1":"H\u00f4tel de Ville","adresse_2":"2 rue de la Mairie","boite_postale":null,"departement":91.0,"libgeo":"Essonne","code_postal":91340.0,"ville":"OLLAINVILLE"}},{"type":"Feature","geometry":{"type":"Point","coordinates":[2.0500781,48.7586622]},"properties":{"mairie":"MAIRIE DE VOISINS-LE-BRETONNEUX","label_vvf":"2 fleurs","adresse_1":"H\u00f4tel de Ville","adresse_2":"1 place Charles de Gaulle","boite_postale":"B.P. 30036","departement":78.0,"libgeo":"Yvelines","code_postal":78960.0,"ville":"VOISINS LE BRETONNEUX"}},{"type":"Feature","geometry":{"type":"Point","coordinates":[2.66263,48.9937423]},"properties":{"mairie":"MAIRIE DE COMPANS","label_vvf":"3 fleurs","adresse_1":"H\u00f4tel de Ville","adresse_2":"1 rue de la Mairie","boite_postale":null,"departement":77.0,"libgeo":"Seine-et-Marne","code_postal":77290.0,"ville":"COMPANS"}},{"type":"Feature","geometry":{"type":"Point","coordinates":[2.5148512,48.6946562]},"properties":{"mairie":"MAIRIE D'EPINAY-SOUS-SENART","label_vvf":"1 fleur","adresse_1":"H\u00f4tel de Ville","adresse_2":"8 route Sainte Genevi\u00e8ve","boite_postale":null,"departement":91.0,"libgeo":"Essonne","code_postal":91860.0,"ville":"EPINAY SOUS SENART"}},{"type":"Feature","geometry":{"type":"Point","coordinates":[2.1809834,48.8781473]},"properties":{"mairie":"MAIRIE DE RUEIL-MALMAISON","label_vvf":"4 fleurs","adresse_1":"H\u00f4tel de Ville","adresse_2":"13 boulevard Foch","boite_postale":null,"departement":92.0,"libgeo":"Hauts-de-Seine","code_postal":92500.0,"ville":"RUEIL-MALMAISON"}},{"type":"Feature","geometry":{"type":"Point","coordinates":[1.829146,48.948189]},"properties":{"mairie":"MAIRIE DE LA FALAISE","label_vvf":"1 fleur","adresse_1":"H\u00f4tel de Ville","adresse_2":"Rue des Grands Pr\u00e9s","boite_postale":null,"departement":78.0,"libgeo":"Yvelines","code_postal":78410.0,"ville":"LA FALAISE"}},{"type":"Feature","geometry":{"type":"Point","coordinates":[2.428767,48.624146]},"properties":{"mairie":"MAIRIE D'EVRY","label_vvf":"3 fleurs","adresse_1":"H\u00f4tel de Ville","adresse_2":"Place des droits de l'homme et du citoyen","boite_postale":null,"departement":91.0,"libgeo":"Essonne","code_postal":91000.0,"ville":"EVRY CEDEX"}},{"type":"Feature","geometry":{"type":"Point","coordinates":[2.3568193,48.8121292]},"properties":{"mairie":"MAIRIE DU KREMLIN BICETRE","label_vvf":"2 fleurs","adresse_1":"H\u00f4tel de Ville","adresse_2":"42 rue de la Convention","boite_postale":null,"departement":94.0,"libgeo":"Val-de-Marne","code_postal":94270.0,"ville":"LE KREMLIN BICETRE"}},{"type":"Feature","geometry":{"type":"Point","coordinates":[2.745294,48.8750143]},"properties":{"mairie":"MAIRIE DE MONTEVRAIN","label_vvf":"1 fleur","adresse_1":"H\u00f4tel de Ville","adresse_2":"4 rue Bonne Mouche","boite_postale":null,"departement":77.0,"libgeo":"Seine-et-Marne","code_postal":77144.0,"ville":"MONTEVRAIN"}},{"type":"Feature","geometry":{"type":"Point","coordinates":[2.2365531,48.682256699999996]},"properties":{"mairie":"MAIRIE DE VILLEJUST","label_vvf":"1 fleur","adresse_1":"H\u00f4tel de Ville","adresse_2":"6 rue de la Mairie","boite_postale":null,"departement":91.0,"libgeo":"Essonne","code_postal":91140.0,"ville":"VILLEJUST"}},{"type":"Feature","geometry":{"type":"Point","coordinates":[2.083965,48.724021]},"properties":{"mairie":"MAIRIE DE MAGNY-LES-HAMEAUX","label_vvf":"1 fleur","adresse_1":"H\u00f4tel de Ville","adresse_2":"1 place Pierre B\u00e9r\u00e9govoy","boite_postale":null,"departement":78.0,"libgeo":"Yvelines","code_postal":78114.0,"ville":"MAGNY-LES-HAMEAUX"}},{"type":"Feature","geometry":{"type":"Point","coordinates":[2.3917885,48.926239]},"properties":{"mairie":"MAIRIE DE LA COURNEUVE","label_vvf":"3 fleurs","adresse_1":"H\u00f4tel de Ville","adresse_2":"58 avenue Gabriel P\u00e9ri","boite_postale":null,"departement":93.0,"libgeo":"Seine-Saint-Denis","code_postal":93126.0,"ville":"LA COURNEUVE CEDEX"}},{"type":"Feature","geometry":{"type":"Point","coordinates":[3.2735543,48.9236503]},"properties":{"mairie":"MAIRIE DE LA TRETOIRE","label_vvf":"1 fleur","adresse_1":"H\u00f4tel de Ville","adresse_2":"Place de la Mairie","boite_postale":null,"departement":77.0,"libgeo":"Seine-et-Marne","code_postal":77510.0,"ville":"LA TRETOIRE"}},{"type":"Feature","geometry":{"type":"Point","coordinates":[2.4861421,48.5654637]},"properties":{"mairie":"MAIRIE DU COUDRAY MONTCEAUX","label_vvf":"2 fleurs","adresse_1":"H\u00f4tel de Ville","adresse_2":"45 avenue Charles de Gaulle","boite_postale":null,"departement":91.0,"libgeo":"Essonne","code_postal":91830.0,"ville":"LE COUDRAY MONTCEAUX"}},{"type":"Feature","geometry":{"type":"Point","coordinates":[1.7152979,48.9893796]},"properties":{"mairie":"MAIRIE DE MANTES-LA-JOLIE","label_vvf":"3 fleurs","adresse_1":"H\u00f4tel de Ville","adresse_2":"31 rue Gambetta","boite_postale":"BP 1600","departement":78.0,"libgeo":"Yvelines","code_postal":78200.0,"ville":"MANTES LA JOLIE"}},{"type":"Feature","geometry":{"type":"Point","coordinates":[1.713578,48.977996]},"properties":{"mairie":"MAIRIE DE MANTES-LA-VILLE","label_vvf":"1 fleur","adresse_1":"H\u00f4tel de Ville","adresse_2":"Place de la Mairie","boite_postale":null,"departement":78.0,"libgeo":"Yvelines","code_postal":78711.0,"ville":"MANTES LA VILLE"}},{"type":"Feature","geometry":{"type":"Point","coordinates":[2.097123,48.868213]},"properties":{"mairie":"MAIRIE DE MARLY-LE-ROI","label_vvf":"2 fleurs","adresse_1":"H\u00f4tel de Ville","adresse_2":"Place du G\u00e9n\u00e9ral de Gaulle","boite_postale":null,"departement":78.0,"libgeo":"Yvelines","code_postal":78160.0,"ville":"MARLY-LE-ROI"}},{"type":"Feature","geometry":{"type":"Point","coordinates":[2.7210641,48.9256373]},"properties":{"mairie":"MAIRIE D'ANNET-SUR-MARNE","label_vvf":"3 fleurs","adresse_1":"H\u00f4tel de Ville","adresse_2":"38 rue Paul-Valentin","boite_postale":"BP n\u00b03","departement":77.0,"libgeo":"Seine-et-Marne","code_postal":77410.0,"ville":"ANNET-SUR-MARNE"}},{"type":"Feature","geometry":{"type":"Point","coordinates":[2.7208826,48.4049351]},"properties":{"mairie":"MAIRIE D'AVON","label_vvf":"3 fleurs","adresse_1":"H\u00f4tel de Ville","adresse_2":"8 rue P\u00e8re Maurice","boite_postale":null,"departement":77.0,"libgeo":"Seine-et-Marne","code_postal":77216.0,"ville":"AVON CEDEX"}},{"type":"Feature","geometry":{"type":"Point","coordinates":[2.2789854,48.9910724]},"properties":{"mairie":"MAIRIE D'EAUBONNE","label_vvf":"3 fleurs","adresse_1":"H\u00f4tel de Ville","adresse_2":"1 rue d'Enghien","boite_postale":null,"departement":95.0,"libgeo":"Val-d'Oise","code_postal":95600.0,"ville":"EAUBONNE"}},{"type":"Feature","geometry":{"type":"Point","coordinates":[1.982606,49.145141]},"properties":{"mairie":"MAIRIE DE MARINES","label_vvf":"2 fleurs","adresse_1":"H\u00f4tel de Ville","adresse_2":"Place du Mar\u00e9chal Leclerc","boite_postale":"BP 21","departement":95.0,"libgeo":"Val-d'Oise","code_postal":95640.0,"ville":"MARINES"}},{"type":"Feature","geometry":{"type":"Point","coordinates":[2.1724777,48.7309643]},"properties":{"mairie":"MAIRIE DE SACLAY","label_vvf":"1 fleur","adresse_1":"H\u00f4tel de Ville","adresse_2":"12 place de la Mairie","boite_postale":null,"departement":91.0,"libgeo":"Essonne","code_postal":91400.0,"ville":"SACLAY"}},{"type":"Feature","geometry":{"type":"Point","coordinates":[2.2572532,48.9526366]},"properties":{"mairie":"MAIRIE DE SAINT-GRATIEN","label_vvf":"3 fleurs","adresse_1":"H\u00f4tel de Ville","adresse_2":"Place Gambetta","boite_postale":null,"departement":95.0,"libgeo":"Val-d'Oise","code_postal":95210.0,"ville":"SAINT GRATIEN"}},{"type":"Feature","geometry":{"type":"Point","coordinates":[2.5701359999999998,48.725774]},"properties":{"mairie":"MAIRIE DE SANTENY","label_vvf":"2 fleurs","adresse_1":"H\u00f4tel de Ville","adresse_2":"Place du G\u00e9n\u00e9ral De Gaulle","boite_postale":null,"departement":94.0,"libgeo":"Val-de-Marne","code_postal":94440.0,"ville":"SANTENY"}},{"type":"Feature","geometry":{"type":"Point","coordinates":[2.0446522,48.707679]},"properties":{"mairie":"MAIRIE DE CHEVREUSE","label_vvf":"2 fleurs","adresse_1":"H\u00f4tel de Ville","adresse_2":"5 rue de la Division Leclerc","boite_postale":null,"departement":78.0,"libgeo":"Yvelines","code_postal":78460.0,"ville":"CHEVREUSE"}},{"type":"Feature","geometry":{"type":"Point","coordinates":[2.408831,48.762962]},"properties":{"mairie":"MAIRIE DE CHOISY-LE-ROI","label_vvf":"3 fleurs","adresse_1":"H\u00f4tel de Ville","adresse_2":"Place Gabriel P\u00e9ri","boite_postale":"BP 208","departement":94.0,"libgeo":"Val-de-Marne","code_postal":94607.0,"ville":"CHOISY LE ROI CEDEX"}},{"type":"Feature","geometry":{"type":"Point","coordinates":[2.0762799,48.6460171]},"properties":{"mairie":"MAIRIE DE LIMOURS-EN-HUREPOIX","label_vvf":"2 fleurs","adresse_1":"H\u00f4tel de Ville","adresse_2":"Place du G\u00e9n\u00e9ral de Gaulle","boite_postale":null,"departement":91.0,"libgeo":"Essonne","code_postal":91470.0,"ville":"LIMOURS EN HUREPOIX"}},{"type":"Feature","geometry":{"type":"Point","coordinates":[2.575157,48.8635041]},"properties":{"mairie":"MAIRIE DE GAGNY","label_vvf":"4 fleurs","adresse_1":"H\u00f4tel de Ville","adresse_2":"1 place Foch","boite_postale":null,"departement":93.0,"libgeo":"Seine-Saint-Denis","code_postal":93220.0,"ville":"GAGNY"}},{"type":"Feature","geometry":{"type":"Point","coordinates":[2.4641883,48.938876]},"properties":{"mairie":"MAIRIE DU BLANC-MESNIL","label_vvf":"3 fleurs","adresse_1":"H\u00f4tel de Ville","adresse_2":"Place Gabriel P\u00e9ri","boite_postale":null,"departement":93.0,"libgeo":"Seine-Saint-Denis","code_postal":93156.0,"ville":"LE BLANC MESNIL CEDEX"}},{"type":"Feature","geometry":{"type":"Point","coordinates":[2.8140467,48.8661321]},"properties":{"mairie":"MAIRIE DE MAGNY-LE-HONGRE","label_vvf":"3 fleurs","adresse_1":"H\u00f4tel de Ville","adresse_2":"21 rue du Moulin \u00e0 Vent","boite_postale":null,"departement":77.0,"libgeo":"Seine-et-Marne","code_postal":77700.0,"ville":"MAGNY-LE-HONGRE"}},{"type":"Feature","geometry":{"type":"Point","coordinates":[2.5674014,48.9323852]},"properties":{"mairie":"MAIRIE DE VAUJOURS","label_vvf":"2 fleurs","adresse_1":"H\u00f4tel de Ville","adresse_2":"20 rue Alexandre Boucher","boite_postale":null,"departement":93.0,"libgeo":"Seine-Saint-Denis","code_postal":93410.0,"ville":"VAUJOURS"}},{"type":"Feature","geometry":{"type":"Point","coordinates":[2.5071909999999997,48.8828407]},"properties":{"mairie":"MAIRIE DE VILLEMOMBLE","label_vvf":"3 fleurs","adresse_1":"H\u00f4tel de Ville","adresse_2":"13 bis rue d'Avron","boite_postale":null,"departement":93.0,"libgeo":"Seine-Saint-Denis","code_postal":93250.0,"ville":"VILLEMOMBLE"}},{"type":"Feature","geometry":{"type":"Point","coordinates":[2.2925639,48.6764553]},"properties":{"mairie":"MAIRIE DE BALLAINVILLIERS","label_vvf":"1 fleur","adresse_1":"H\u00f4tel de Ville","adresse_2":"1 rue Longjumeau","boite_postale":null,"departement":91.0,"libgeo":"Essonne","code_postal":91160.0,"ville":"BALLAINVILLIERS"}},{"type":"Feature","geometry":{"type":"Point","coordinates":[2.6721774,48.8367897]},"properties":{"mairie":"MAIRIE DE COLLEGIEN","label_vvf":"1 fleur","adresse_1":"H\u00f4tel de Ville","adresse_2":"8 place Mireille Morvan","boite_postale":"BP 80 - Coll\u00e9gien","departement":77.0,"libgeo":"Seine-et-Marne","code_postal":77090.0,"ville":"COLLEGIEN"}},{"type":"Feature","geometry":{"type":"Point","coordinates":[2.6741434,48.9641417]},"properties":{"mairie":"MAIRIE DE GRESSY","label_vvf":"1 fleur","adresse_1":"H\u00f4tel de Ville","adresse_2":"12 avenue du Ch\u00e2teau","boite_postale":null,"departement":77.0,"libgeo":"Seine-et-Marne","code_postal":77410.0,"ville":"GRESSY"}},{"type":"Feature","geometry":{"type":"Point","coordinates":[2.2749649,48.8246398]},"properties":{"mairie":"MAIRIE D'ISSY LES MOULINEAUX","label_vvf":"3 fleurs","adresse_1":"H\u00f4tel de Ville","adresse_2":"47 Rue du G\u00e9n\u00e9ral Leclerc","boite_postale":null,"departement":92.0,"libgeo":"Hauts-de-Seine","code_postal":92131.0,"ville":"ISSY LES MOULINEAUX"}},{"type":"Feature","geometry":{"type":"Point","coordinates":[2.7887482,48.8443133]},"properties":{"mairie":"MAIRIE DE SERRIS","label_vvf":"3 fleurs","adresse_1":"H\u00f4tel de Ville","adresse_2":"12 rue Emile Cloud","boite_postale":null,"departement":77.0,"libgeo":"Seine-et-Marne","code_postal":77700.0,"ville":"SERRIS"}},{"type":"Feature","geometry":{"type":"Point","coordinates":[2.5070883,48.639413]},"properties":{"mairie":"MAIRIE DE TIGERY","label_vvf":"2 fleurs","adresse_1":"H\u00f4tel de Ville","adresse_2":"2 Place Liedekerke-Beaufort","boite_postale":"B.P. 24","departement":91.0,"libgeo":"Essonne","code_postal":91250.0,"ville":"TIGERY"}},{"type":"Feature","geometry":{"type":"Point","coordinates":[3.129322,48.950195]},"properties":{"mairie":"MAIRIE DE LA FERTE-SOUS-JOUARRE","label_vvf":"2 fleurs","adresse_1":"H\u00f4tel de Ville","adresse_2":"Place de l'H\u00f4tel de Ville","boite_postale":"BP 45","departement":77.0,"libgeo":"Seine-et-Marne","code_postal":77260.0,"ville":"LA FERTE-SOUS-JOUARRE"}},{"type":"Feature","geometry":{"type":"Point","coordinates":[2.1223156,48.9279705]},"properties":{"mairie":"MAIRIE DU MESNIL-LE-ROI","label_vvf":"3 fleurs","adresse_1":"H\u00f4tel de Ville","adresse_2":"1 rue du G\u00e9n\u00e9ral Leclerc","boite_postale":null,"departement":78.0,"libgeo":"Yvelines","code_postal":78605.0,"ville":"LE MESNIL-LE-ROI CEDEX"}},{"type":"Feature","geometry":{"type":"Point","coordinates":[1.7353290000000001,48.9920293]},"properties":{"mairie":"MAIRIE DE LIMAY","label_vvf":"3 fleurs","adresse_1":"H\u00f4tel de Ville","adresse_2":"5 avenue du Pr\u00e9sident Wilson","boite_postale":null,"departement":78.0,"libgeo":"Yvelines","code_postal":78520.0,"ville":"LIMAY"}},{"type":"Feature","geometry":{"type":"Point","coordinates":[2.3566594,48.997365]},"properties":{"mairie":"MAIRIE DE SAINT-BRICE-SOUS-FORET","label_vvf":"1 fleur","adresse_1":"H\u00f4tel de Ville","adresse_2":"14 rue de Paris","boite_postale":null,"departement":95.0,"libgeo":"Val-d'Oise","code_postal":95350.0,"ville":"SAINT BRICE SOUS FORET"}},{"type":"Feature","geometry":{"type":"Point","coordinates":[2.1248517,48.6245346]},"properties":{"mairie":"MAIRIE DE BRIIS-SOUS-FORGES","label_vvf":"3 fleurs","adresse_1":"H\u00f4tel de Ville","adresse_2":"Place de la Lib\u00e9ration","boite_postale":null,"departement":91.0,"libgeo":"Essonne","code_postal":91640.0,"ville":"BRIIS-SOUS-FORGES"}},{"type":"Feature","geometry":{"type":"Point","coordinates":[2.4530087,48.7776722]},"properties":{"mairie":"MAIRIE DE CRETEIL","label_vvf":"4 fleurs","adresse_1":"H\u00f4tel de Ville","adresse_2":"1 place Salvador Allende","boite_postale":null,"departement":94.0,"libgeo":"Val-de-Marne","code_postal":94000.0,"ville":"CRETEIL"}},{"type":"Feature","geometry":{"type":"Point","coordinates":[2.3142335,48.9517318]},"properties":{"mairie":"MAIRIE D'EPINAY-SUR-SEINE","label_vvf":"2 fleurs","adresse_1":"H\u00f4tel de Ville","adresse_2":"1 rue Qu\u00e9tigny","boite_postale":null,"departement":93.0,"libgeo":"Seine-Saint-Denis","code_postal":93800.0,"ville":"EPINAY-SUR-SEINE"}},{"type":"Feature","geometry":{"type":"Point","coordinates":[2.3591007,48.9633994]},"properties":{"mairie":"MAIRIE DE PIERREFITTE-SUR-SEINE","label_vvf":"2 fleurs","adresse_1":"H\u00f4tel de Ville","adresse_2":"2 place de la Lib\u00e9ration","boite_postale":null,"departement":93.0,"libgeo":"Seine-Saint-Denis","code_postal":93380.0,"ville":"PIERREFITTE SUR SEINE"}},{"type":"Feature","geometry":{"type":"Point","coordinates":[2.0206929,48.8597695]},"properties":{"mairie":"MAIRIE DE SAINT-NOM-LA-BRETECHE","label_vvf":"1 fleur","adresse_1":"H\u00f4tel de Ville","adresse_2":"32 rue de la Fontaine des Vaux","boite_postale":null,"departement":78.0,"libgeo":"Yvelines","code_postal":78860.0,"ville":"SAINT-NOM-LA-BRETECHE"}},{"type":"Feature","geometry":{"type":"Point","coordinates":[2.3325663,48.935901]},"properties":{"mairie":"MAIRIE DE VILLENEUVE-LA-GARENNE","label_vvf":"3 fleurs","adresse_1":"H\u00f4tel de Ville","adresse_2":"28 avenue de Verdun","boite_postale":null,"departement":92.0,"libgeo":"Hauts-de-Seine","code_postal":92390.0,"ville":"VILLENEUVE LA GARENNE"}},{"type":"Feature","geometry":{"type":"Point","coordinates":[1.960608,48.499382]},"properties":{"mairie":"MAIRIE DE CORBREUSE","label_vvf":"1 fleur","adresse_1":"H\u00f4tel de Ville","adresse_2":"Rue des \u00c9coles","boite_postale":null,"departement":91.0,"libgeo":"Essonne","code_postal":91410.0,"ville":"CORBREUSE"}},{"type":"Feature","geometry":{"type":"Point","coordinates":[2.269797,48.8849586]},"properties":{"mairie":"MAIRIE DE NEUILLY-SUR-SEINE","label_vvf":"3 fleurs","adresse_1":"H\u00f4tel de Ville","adresse_2":"96 avenue Achille Peretti","boite_postale":null,"departement":92.0,"libgeo":"Hauts-de-Seine","code_postal":92200.0,"ville":"NEUILLY SUR SEINE"}},{"type":"Feature","geometry":{"type":"Point","coordinates":[2.5266848,48.9399746]},"properties":{"mairie":"MAIRIE DE SEVRAN","label_vvf":"2 fleurs","adresse_1":"H\u00f4tel de Ville","adresse_2":"28 avenue du G\u00e9n\u00e9ral Leclerc","boite_postale":null,"departement":93.0,"libgeo":"Seine-Saint-Denis","code_postal":93270.0,"ville":"SEVRAN"}},{"type":"Feature","geometry":{"type":"Point","coordinates":[2.0726617,48.7060169]},"properties":{"mairie":"MAIRIE DE SAINT-REMY-LES-CHEVREUSE","label_vvf":"1 fleur","adresse_1":"H\u00f4tel de Ville","adresse_2":"2 avenue Victor Hugo","boite_postale":"BP 38","departement":78.0,"libgeo":"Yvelines","code_postal":78470.0,"ville":"SAINT REMY LES CHEVREUSE"}},{"type":"Feature","geometry":{"type":"Point","coordinates":[3.085012,48.811993]},"properties":{"mairie":"MAIRIE DE COULOMMIERS","label_vvf":"3 fleurs","adresse_1":"H\u00f4tel de Ville","adresse_2":"13 rue du G\u00e9n\u00e9ral de Gaulle","boite_postale":null,"departement":77.0,"libgeo":"Seine-et-Marne","code_postal":77120.0,"ville":"COULOMMIERS"}},{"type":"Feature","geometry":{"type":"Point","coordinates":[2.2299905,48.9864964]},"properties":{"mairie":"MAIRIE DE FRANCONVILLE","label_vvf":"3 fleurs","adresse_1":"H\u00f4tel de Ville","adresse_2":"11 rue de la Station","boite_postale":"BP 90043","departement":95.0,"libgeo":"Val-d'Oise","code_postal":95132.0,"ville":"FRANCONVILLE"}},{"type":"Feature","geometry":{"type":"Point","coordinates":[1.8256458,49.0459622]},"properties":{"mairie":"MAIRIE DE MONTALET-LE-BOIS","label_vvf":"1 fleur","adresse_1":"H\u00f4tel de Ville","adresse_2":"2 rue de l'Eglise","boite_postale":null,"departement":78.0,"libgeo":"Yvelines","code_postal":78440.0,"ville":"MONTALET-LE-BOIS"}},{"type":"Feature","geometry":{"type":"Point","coordinates":[1.7565998,48.9297917]},"properties":{"mairie":"MAIRIE DE BOINVILLE-EN-MANTOIS","label_vvf":"2 fleurs","adresse_1":"H\u00f4tel de Ville","adresse_2":"2 rue du Clos dor\u00e9","boite_postale":null,"departement":78.0,"libgeo":"Yvelines","code_postal":78930.0,"ville":"BOINVILLE EN MANTOIS"}},{"type":"Feature","geometry":{"type":"Point","coordinates":[2.0190459,48.8557922]},"properties":{"mairie":"MAIRIE DE CHAMBOURCY","label_vvf":"2 fleurs","adresse_1":"H\u00f4tel de Ville","adresse_2":"2 place Charles de Gaulle","boite_postale":null,"departement":78.0,"libgeo":"Yvelines","code_postal":78240.0,"ville":"CHAMBOURCY"}},{"type":"Feature","geometry":{"type":"Point","coordinates":[1.9866465,48.853793]},"properties":{"mairie":"MAIRIE DE CHAVENAY","label_vvf":"2 fleurs","adresse_1":"H\u00f4tel de Ville","adresse_2":"1 place de l'Eglise","boite_postale":null,"departement":78.0,"libgeo":"Yvelines","code_postal":78450.0,"ville":"CHAVENAY"}},{"type":"Feature","geometry":{"type":"Point","coordinates":[2.6160655,48.7444229]},"properties":{"mairie":"MAIRIE DE LESIGNY","label_vvf":"2 fleurs","adresse_1":"H\u00f4tel de Ville","adresse_2":"6 rue Villarceau","boite_postale":null,"departement":77.0,"libgeo":"Seine-et-Marne","code_postal":77150.0,"ville":"LESIGNY"}},{"type":"Feature","geometry":{"type":"Point","coordinates":[2.8284089999999997,48.8877533]},"properties":{"mairie":"MAIRIE DE MONTRY","label_vvf":"1 fleur","adresse_1":"H\u00f4tel de Ville","adresse_2":"25 avenue de la Mairie","boite_postale":null,"departement":77.0,"libgeo":"Seine-et-Marne","code_postal":77450.0,"ville":"MONTRY"}},{"type":"Feature","geometry":{"type":"Point","coordinates":[1.8194238,48.6449451]},"properties":{"mairie":"MAIRIE DE RAMBOUILLET","label_vvf":"3 fleurs","adresse_1":"H\u00f4tel de Ville","adresse_2":"1 Place de la Lib\u00e9ration","boite_postale":null,"departement":78.0,"libgeo":"Yvelines","code_postal":78514.0,"ville":"RAMBOUILLET CEDEX"}},{"type":"Feature","geometry":{"type":"Point","coordinates":[2.1399982,48.8608942]},"properties":{"mairie":"MAIRIE DE BOUGIVAL","label_vvf":"1 fleur","adresse_1":"H\u00f4tel de Ville","adresse_2":"126 rue du Mar\u00e9chal Joffre","boite_postale":null,"departement":78.0,"libgeo":"Yvelines","code_postal":78380.0,"ville":"BOUGIVAL"}},{"type":"Feature","geometry":{"type":"Point","coordinates":[2.3829642,48.9558242]},"properties":{"mairie":"MAIRIE DE STAINS","label_vvf":"2 fleurs","adresse_1":"H\u00f4tel de Ville","adresse_2":"6 avenue Paul Vaillant Couturier","boite_postale":null,"departement":93.0,"libgeo":"Seine-Saint-Denis","code_postal":93240.0,"ville":"STAINS"}},{"type":"Feature","geometry":{"type":"Point","coordinates":[2.3850046,48.6561483]},"properties":{"mairie":"MAIRIE DE GRIGNY","label_vvf":"2 fleurs","adresse_1":"H\u00f4tel de Ville","adresse_2":"19 route de Corbeil","boite_postale":null,"departement":91.0,"libgeo":"Essonne","code_postal":91350.0,"ville":"GRIGNY"}},{"type":"Feature","geometry":{"type":"Point","coordinates":[2.186706,48.9231927]},"properties":{"mairie":"MAIRIE DE HOUILLES","label_vvf":"2 fleurs","adresse_1":"H\u00f4tel de Ville","adresse_2":"16 rue Gambetta","boite_postale":null,"departement":78.0,"libgeo":"Yvelines","code_postal":78805.0,"ville":"HOUILLES"}},{"type":"Feature","geometry":{"type":"Point","coordinates":[2.9901192,48.6520048]},"properties":{"mairie":"MAIRIE DE LA CHAPELLE-IGER","label_vvf":"1 fleur","adresse_1":"H\u00f4tel de Ville","adresse_2":"2 rue du Mar\u00e9chal Leclerc","boite_postale":null,"departement":77.0,"libgeo":"Seine-et-Marne","code_postal":77540.0,"ville":"LA CHAPELLE-IGER"}},{"type":"Feature","geometry":{"type":"Point","coordinates":[2.5730938,48.8087415]},"properties":{"mairie":"MAIRIE DU PLESSIS-TREVISE","label_vvf":"3 fleurs","adresse_1":"H\u00f4tel de Ville","adresse_2":"36 avenue Ardouin","boite_postale":null,"departement":94.0,"libgeo":"Val-de-Marne","code_postal":94420.0,"ville":"LE PLESSIS TREVISE"}},{"type":"Feature","geometry":{"type":"Point","coordinates":[2.5063705,48.8609973]},"properties":{"mairie":"MAIRIE DE NEUILLY-PLAISANCE","label_vvf":"2 fleurs","adresse_1":"H\u00f4tel de Ville","adresse_2":"6 rue du G\u00e9n\u00e9ral de Gaulle","boite_postale":null,"departement":93.0,"libgeo":"Seine-Saint-Denis","code_postal":93360.0,"ville":"NEUILLY PLAISANCE"}},{"type":"Feature","geometry":{"type":"Point","coordinates":[2.6835638,48.5257882]},"properties":{"mairie":"MAIRIE DE VAUX-LE-PENIL","label_vvf":"2 fleurs","adresse_1":"H\u00f4tel de Ville","adresse_2":"8 rue des Carouges","boite_postale":null,"departement":77.0,"libgeo":"Seine-et-Marne","code_postal":77000.0,"ville":"VAUX LE PENIL"}},{"type":"Feature","geometry":{"type":"Point","coordinates":[2.3451104,48.9867207]},"properties":{"mairie":"MAIRIE DE GROSLAY","label_vvf":"1 fleur","adresse_1":"H\u00f4tel de Ville","adresse_2":"22 rue du G\u00e9n\u00e9ral leclerc","boite_postale":null,"departement":95.0,"libgeo":"Val-d'Oise","code_postal":95410.0,"ville":"GROSLAY"}},{"type":"Feature","geometry":{"type":"Point","coordinates":[2.3438328,48.9614722]},"properties":{"mairie":"MAIRIE DE VILLETANEUSE","label_vvf":"3 fleurs","adresse_1":"H\u00f4tel de Ville","adresse_2":"Place de l'H\u00f4tel de ville","boite_postale":null,"departement":93.0,"libgeo":"Seine-Saint-Denis","code_postal":93430.0,"ville":"VILLETANEUSE"}},{"type":"Feature","geometry":{"type":"Point","coordinates":[2.7055435,48.8776383]},"properties":{"mairie":"MAIRIE DE LAGNY-SUR-MARNE","label_vvf":"3 fleurs","adresse_1":"H\u00f4tel de Ville","adresse_2":"2 place de l'H\u00f4tel de Ville","boite_postale":null,"departement":77.0,"libgeo":"Seine-et-Marne","code_postal":77400.0,"ville":"LAGNY-SUR-MARNE"}},{"type":"Feature","geometry":{"type":"Point","coordinates":[2.6040609999999997,49.063722]},"properties":{"mairie":"MAIRIE DE MOUSSY LE NEUF","label_vvf":"3 fleurs","adresse_1":"H\u00f4tel de Ville","adresse_2":"Place Charles de Gaulle","boite_postale":null,"departement":77.0,"libgeo":"Seine-et-Marne","code_postal":77230.0,"ville":"MOUSSY-LE-NEUF"}},{"type":"Feature","geometry":{"type":"Point","coordinates":[2.4996776,48.9344024]},"properties":{"mairie":"MAIRIE D'AULNAY SOUS BOIS","label_vvf":"4 fleurs","adresse_1":"H\u00f4tel de Ville","adresse_2":"Place de l'H\u00f4tel de Ville","boite_postale":null,"departement":93.0,"libgeo":"Seine-Saint-Denis","code_postal":93600.0,"ville":"AULNAY SOUS BOIS"}},{"type":"Feature","geometry":{"type":"Point","coordinates":[2.5805659,48.8738459]},"properties":{"mairie":"MAIRIE DE GOURNAY-SUR-MARNE","label_vvf":"2 fleurs","adresse_1":"H\u00f4tel de Ville","adresse_2":"10 Avenue Foch","boite_postale":"B.P. 11","departement":93.0,"libgeo":"Seine-Saint-Denis","code_postal":93460.0,"ville":"GOURNAY SUR MARNE"}},{"type":"Feature","geometry":{"type":"Point","coordinates":[2.2386217999999998,48.8127232]},"properties":{"mairie":"MAIRIE DE MEUDON","label_vvf":"4 fleurs","adresse_1":"H\u00f4tel de Ville","adresse_2":"6 avenue Le Corbeiller","boite_postale":null,"departement":92.0,"libgeo":"Hauts-de-Seine","code_postal":92190.0,"ville":"MEUDON"}},{"type":"Feature","geometry":{"type":"Point","coordinates":[2.4545097,48.8527446]},"properties":{"mairie":"MAIRIE DE NOGENT-SUR-MARNE","label_vvf":"3 fleurs","adresse_1":"H\u00f4tel de Ville","adresse_2":"Square d'Estienne d'Orves","boite_postale":null,"departement":94.0,"libgeo":"Val-de-Marne","code_postal":94130.0,"ville":"NOGENT-SUR-MARNE"}},{"type":"Feature","geometry":{"type":"Point","coordinates":[2.2484479,48.5901085]},"properties":{"mairie":"MAIRIE D'ARPAJON","label_vvf":"3 fleurs","adresse_1":"H\u00f4tel de Ville","adresse_2":"70 Grande Rue","boite_postale":null,"departement":91.0,"libgeo":"Essonne","code_postal":91290.0,"ville":"ARPAJON"}},{"type":"Feature","geometry":{"type":"Point","coordinates":[2.1348145,48.8940078]},"properties":{"mairie":"MAIRIE DU VESINET","label_vvf":"4 fleurs","adresse_1":"H\u00f4tel de Ville","adresse_2":"60 boulevard Carnot","boite_postale":null,"departement":78.0,"libgeo":"Yvelines","code_postal":78110.0,"ville":"LE VESINET"}},{"type":"Feature","geometry":{"type":"Point","coordinates":[2.1157641,48.8612073]},"properties":{"mairie":"MAIRIE DE LOUVECIENNES","label_vvf":"3 fleurs","adresse_1":"H\u00f4tel de Ville","adresse_2":"30 rue du G\u00e9n\u00e9ral Leclerc","boite_postale":null,"departement":78.0,"libgeo":"Yvelines","code_postal":78430.0,"ville":"LOUVECIENNES"}},{"type":"Feature","geometry":{"type":"Point","coordinates":[2.6245634,48.5124495]},"properties":{"mairie":"MAIRIE DU MEE-SUR-SEINE","label_vvf":"4 fleurs","adresse_1":"H\u00f4tel de Ville","adresse_2":"111 rue de la Vive","boite_postale":null,"departement":77.0,"libgeo":"Seine-et-Marne","code_postal":77350.0,"ville":"LE MEE-SUR-SEINE"}},{"type":"Feature","geometry":{"type":"Point","coordinates":[2.2092934,49.1138561]},"properties":{"mairie":"MAIRIE DE PARMAIN","label_vvf":"2 fleurs","adresse_1":"H\u00f4tel de Ville","adresse_2":"2 place Georges Cl\u00e9menceau","boite_postale":null,"departement":95.0,"libgeo":"Val-d'Oise","code_postal":95620.0,"ville":"PARMAIN"}},{"type":"Feature","geometry":{"type":"Point","coordinates":[2.4817776,48.6139553]},"properties":{"mairie":"MAIRIE DE CORBEIL-ESSONNES","label_vvf":"2 fleurs","adresse_1":"H\u00f4tel de Ville","adresse_2":"2 place Galignani","boite_postale":null,"departement":91.0,"libgeo":"Essonne","code_postal":91100.0,"ville":"CORBEIL ESSONNES"}},{"type":"Feature","geometry":{"type":"Point","coordinates":[2.0053221,49.0417202]},"properties":{"mairie":"MAIRIE DE COURDIMANCHE","label_vvf":"1 fleur","adresse_1":"H\u00f4tel de Ville","adresse_2":"Rue Vieille Saint Martin","boite_postale":null,"departement":95.0,"libgeo":"Val-d'Oise","code_postal":95800.0,"ville":"COURDIMANCHE"}},{"type":"Feature","geometry":{"type":"Point","coordinates":[2.288556,48.8212024]},"properties":{"mairie":"MAIRIE DE VANVES","label_vvf":"2 fleurs","adresse_1":"H\u00f4tel de Ville","adresse_2":"33 rue Antoine Fratacci","boite_postale":null,"departement":92.0,"libgeo":"Hauts-de-Seine","code_postal":92170.0,"ville":"VANVES"}},{"type":"Feature","geometry":{"type":"Point","coordinates":[2.5359131,48.804355]},"properties":{"mairie":"MAIRIE DE NOISY-LE-GRAND","label_vvf":"2 fleurs","adresse_1":"H\u00f4tel de Ville","adresse_2":"1 place de la Lib\u00e9ration","boite_postale":"BP 49","departement":93.0,"libgeo":"Seine-Saint-Denis","code_postal":93161.0,"ville":"NOISY-LE-GRAND"}},{"type":"Feature","geometry":{"type":"Point","coordinates":[2.1895444,48.4935553]},"properties":{"mairie":"MAIRIE D'ETRECHY","label_vvf":"2 fleurs","adresse_1":"H\u00f4tel de Ville","adresse_2":"Place Charles de Gaulle","boite_postale":null,"departement":91.0,"libgeo":"Essonne","code_postal":91580.0,"ville":"ETRECHY"}},{"type":"Feature","geometry":{"type":"Point","coordinates":[3.004241,48.9993208]},"properties":{"mairie":"MAIRIE DE LIZY-SUR-OURCQ","label_vvf":"2 fleurs","adresse_1":"H\u00f4tel de Ville","adresse_2":"Place de Verdun","boite_postale":null,"departement":77.0,"libgeo":"Seine-et-Marne","code_postal":77440.0,"ville":"LIZY-SUR-OURCQ"}},{"type":"Feature","geometry":{"type":"Point","coordinates":[2.411812,48.6539278]},"properties":{"mairie":"MAIRIE DE SOISY-SUR-SEINE","label_vvf":"2 fleurs","adresse_1":"H\u00f4tel de Ville","adresse_2":"Place du G\u00e9n\u00e9ral Leclerc","boite_postale":null,"departement":91.0,"libgeo":"Essonne","code_postal":91450.0,"ville":"SOISY SUR SEINE"}},{"type":"Feature","geometry":{"type":"Point","coordinates":[2.2618003,48.7823665]},"properties":{"mairie":"MAIRIE DU PLESSIS-ROBINSON","label_vvf":"4 fleurs","adresse_1":"H\u00f4tel de Ville","adresse_2":"3 place de la Mairie","boite_postale":null,"departement":92.0,"libgeo":"Hauts-de-Seine","code_postal":92350.0,"ville":"LE PLESSIS-ROBINSON"}},{"type":"Feature","geometry":{"type":"Point","coordinates":[2.816498,48.373214]},"properties":{"mairie":"MAIRIE DE MORET-SUR-LOING","label_vvf":"2 fleurs","adresse_1":"H\u00f4tel de Ville","adresse_2":"26 rue Grande","boite_postale":null,"departement":77.0,"libgeo":"Seine-et-Marne","code_postal":77250.0,"ville":"MORET-SUR-LOING"}},{"type":"Feature","geometry":{"type":"Point","coordinates":[2.755994,48.42538]},"properties":{"mairie":"MAIRIE DE SAMOREAU","label_vvf":"1 fleur","adresse_1":"H\u00f4tel de Ville","adresse_2":"24 rue Haut de Samoreau","boite_postale":null,"departement":77.0,"libgeo":"Seine-et-Marne","code_postal":77210.0,"ville":"SAMOREAU"}},{"type":"Feature","geometry":{"type":"Point","coordinates":[1.8551532,48.9589606]},"properties":{"mairie":"MAIRIE D'AUBERGENVILLE","label_vvf":"2 fleurs","adresse_1":"H\u00f4tel de Ville","adresse_2":"1 Avenue de la Division Leclerc","boite_postale":null,"departement":78.0,"libgeo":"Yvelines","code_postal":78416.0,"ville":"AUBERGENVILLE CEDEX"}},{"type":"Feature","geometry":{"type":"Point","coordinates":[2.4817280999999998,48.9022362]},"properties":{"mairie":"MAIRIE DE BONDY","label_vvf":"2 fleurs","adresse_1":"H\u00f4tel de Ville","adresse_2":"Esplanade Claude Fuzier","boite_postale":null,"departement":93.0,"libgeo":"Seine-Saint-Denis","code_postal":93140.0,"ville":"BONDY"}},{"type":"Feature","geometry":{"type":"Point","coordinates":[2.012853,48.529559]},"properties":{"mairie":"MAIRIE DE DOURDAN","label_vvf":"3 fleurs","adresse_1":"H\u00f4tel de Ville","adresse_2":"Esplanade Jean Moulin","boite_postale":"BP 10107","departement":91.0,"libgeo":"Essonne","code_postal":91415.0,"ville":"DOURDAN CEDEX"}},{"type":"Feature","geometry":{"type":"Point","coordinates":[2.9610127,48.8176168]},"properties":{"mairie":"MAIRIE DE GUERARD","label_vvf":"1 fleur","adresse_1":"H\u00f4tel de Ville","adresse_2":"Grande Rue","boite_postale":null,"departement":77.0,"libgeo":"Seine-et-Marne","code_postal":77580.0,"ville":"GUERARD"}},{"type":"Feature","geometry":{"type":"Point","coordinates":[2.6555309,48.5206968]},"properties":{"mairie":"MAIRIE DE LA ROCHETTE","label_vvf":"1 fleur","adresse_1":"H\u00f4tel de Ville","adresse_2":"55 rue Rosa Bonheur","boite_postale":"BP 801","departement":77.0,"libgeo":"Seine-et-Marne","code_postal":77012.0,"ville":"LA ROCHETTE"}},{"type":"Feature","geometry":{"type":"Point","coordinates":[2.5184313,49.0032362]},"properties":{"mairie":"MAIRIE DE ROISSY-EN-FRANCE","label_vvf":"2 fleurs","adresse_1":"H\u00f4tel de Ville","adresse_2":"40 avenue Charles de Gaulle","boite_postale":null,"departement":95.0,"libgeo":"Val-d'Oise","code_postal":95700.0,"ville":"ROISSY EN FRANCE"}},{"type":"Feature","geometry":{"type":"Point","coordinates":[2.1713161,49.0705839]},"properties":{"mairie":"MAIRIE D'AUVERS SUR OISE","label_vvf":"1 fleur","adresse_1":"H\u00f4tel de Ville","adresse_2":"17 rue du G\u00e9n\u00e9ral de Gaulle","boite_postale":null,"departement":95.0,"libgeo":"Val-d'Oise","code_postal":95430.0,"ville":"AUVERS SUR OISE"}},{"type":"Feature","geometry":{"type":"Point","coordinates":[2.565172,48.664759]},"properties":{"mairie":"MAIRIE DE COMBS-LA-VILLE","label_vvf":"2 fleurs","adresse_1":"H\u00f4tel de Ville","adresse_2":"Place de l'H\u00f4tel de Ville","boite_postale":null,"departement":77.0,"libgeo":"Seine-et-Marne","code_postal":77380.0,"ville":"COMBS-LA-VILLE"}},{"type":"Feature","geometry":{"type":"Point","coordinates":[2.295722,48.694115]},"properties":{"mairie":"MAIRIE DE LONGJUMEAU","label_vvf":"3 fleurs","adresse_1":"H\u00f4tel de Ville","adresse_2":"6 bis rue L\u00e9ontine Sohier","boite_postale":"BP 482","departement":91.0,"libgeo":"Essonne","code_postal":91164.0,"ville":"LONGJUMEAU CEDEX"}},{"type":"Feature","geometry":{"type":"Point","coordinates":[2.2380969,48.8844636]},"properties":{"mairie":"MAIRIE DE PUTEAUX","label_vvf":"3 fleurs","adresse_1":"H\u00f4tel de Ville","adresse_2":"131 rue de la R\u00e9publique","boite_postale":null,"departement":92.0,"libgeo":"Hauts-de-Seine","code_postal":92800.0,"ville":"PUTEAUX"}},{"type":"Feature","geometry":{"type":"Point","coordinates":[2.2553985,48.5954162]},"properties":{"mairie":"MAIRIE DE SAINT-GERMAIN-LES-ARPAJON","label_vvf":"2 fleurs","adresse_1":"H\u00f4tel de Ville","adresse_2":"2 rue Ren\u00e9 D\u00e8cle","boite_postale":null,"departement":91.0,"libgeo":"Essonne","code_postal":91180.0,"ville":"SAINT GERMAIN LES ARPAJON"}},{"type":"Feature","geometry":{"type":"Point","coordinates":[2.1883895,48.8097566]},"properties":{"mairie":"MAIRIE DE CHAVILLE","label_vvf":"3 fleurs","adresse_1":"H\u00f4tel de Ville","adresse_2":"1456 av Roger Salengro","boite_postale":null,"departement":92.0,"libgeo":"Hauts-de-Seine","code_postal":92370.0,"ville":"CHAVILLE"}},{"type":"Feature","geometry":{"type":"Point","coordinates":[2.4670834,48.8182577]},"properties":{"mairie":"MAIRIE DE JOINVILLE-LE-PONT","label_vvf":"3 fleurs","adresse_1":"H\u00f4tel de Ville","adresse_2":"23 rue de Paris","boite_postale":"B.P. 83","departement":94.0,"libgeo":"Val-de-Marne","code_postal":94344.0,"ville":"JOINVILLE-LE-PONT"}},{"type":"Feature","geometry":{"type":"Point","coordinates":[2.4191534,48.8432358]},"properties":{"mairie":"MAIRIE DE SAINT-MANDE","label_vvf":"2 fleurs","adresse_1":"H\u00f4tel de Ville","adresse_2":"10 place Charles Digeon","boite_postale":null,"departement":94.0,"libgeo":"Val-de-Marne","code_postal":94160.0,"ville":"SAINT MANDE"}},{"type":"Feature","geometry":{"type":"Point","coordinates":[2.3006723,48.9874476]},"properties":{"mairie":"MAIRIE DE SOISY SOUS MONTMORENCY","label_vvf":"4 fleurs","adresse_1":"H\u00f4tel de Ville","adresse_2":"2 avenue du G\u00e9n\u00e9ral de Gaulle","boite_postale":null,"departement":95.0,"libgeo":"Val-d'Oise","code_postal":95230.0,"ville":"SOISY-SOUS-MONTMORENCY"}},{"type":"Feature","geometry":{"type":"Point","coordinates":[2.191159,48.7828503]},"properties":{"mairie":"MAIRIE DE VELIZY-VILLACOUBLAY","label_vvf":"4 fleurs","adresse_1":"H\u00f4tel de Ville","adresse_2":"2 place de l'H\u00f4tel de Ville","boite_postale":"BP 151","departement":78.0,"libgeo":"Yvelines","code_postal":78145.0,"ville":"VELIZY VILLACOUBLAY"}},{"type":"Feature","geometry":{"type":"Point","coordinates":[2.475798,48.851557]},"properties":{"mairie":"MAIRIE DE FONTENAY-SOUS-BOIS","label_vvf":"3 fleurs","adresse_1":"H\u00f4tel de Ville","adresse_2":"4 esplanade Louis Bayeurte","boite_postale":null,"departement":94.0,"libgeo":"Val-de-Marne","code_postal":94125.0,"ville":"FONTENAY SOUS BOIS CEDEX"}},{"type":"Feature","geometry":{"type":"Point","coordinates":[2.2647014,48.520246]},"properties":{"mairie":"MAIRIE DE LARDY","label_vvf":"1 fleur","adresse_1":"H\u00f4tel de Ville","adresse_2":"70 Grande Rue","boite_postale":null,"departement":91.0,"libgeo":"Essonne","code_postal":91510.0,"ville":"LARDY"}},{"type":"Feature","geometry":{"type":"Point","coordinates":[2.6610621,48.5395013]},"properties":{"mairie":"MAIRIE DE MELUN","label_vvf":"4 fleurs","adresse_1":"H\u00f4tel de Ville","adresse_2":"Rue Paul Doumer","boite_postale":null,"departement":77.0,"libgeo":"Seine-et-Marne","code_postal":77000.0,"ville":"MELUN"}},{"type":"Feature","geometry":{"type":"Point","coordinates":[2.213374,48.824652]},"properties":{"mairie":"MAIRIE DE SEVRES","label_vvf":"3 fleurs","adresse_1":"H\u00f4tel de Ville","adresse_2":"54 Grand Rue","boite_postale":null,"departement":92.0,"libgeo":"Hauts-de-Seine","code_postal":92310.0,"ville":"SEVRES"}},{"type":"Feature","geometry":{"type":"Point","coordinates":[2.4900921,48.7169596]},"properties":{"mairie":"MAIRIE DE YERRES","label_vvf":"3 fleurs","adresse_1":"H\u00f4tel de Ville","adresse_2":"60 rue Charles de Gaulle","boite_postale":null,"departement":91.0,"libgeo":"Essonne","code_postal":91330.0,"ville":"YERRES"}},{"type":"Feature","geometry":{"type":"Point","coordinates":[2.3059307,48.6112535]},"properties":{"mairie":"MAIRIE DE BRETIGNY-SUR-ORGE","label_vvf":"2 fleurs","adresse_1":"H\u00f4tel de Ville","adresse_2":"44 rue de la Mairie","boite_postale":null,"departement":91.0,"libgeo":"Essonne","code_postal":91220.0,"ville":"BRETIGNY SUR ORGE"}},{"type":"Feature","geometry":{"type":"Point","coordinates":[3.013792,48.555402]},"properties":{"mairie":"MAIRIE DE NANGIS","label_vvf":"1 fleur","adresse_1":"H\u00f4tel de Ville","adresse_2":"Rue du Mar\u00e9chal de Lattre de Tassigny","boite_postale":"B.P.55","departement":77.0,"libgeo":"Seine-et-Marne","code_postal":77370.0,"ville":"NANGIS"}},{"type":"Feature","geometry":{"type":"Point","coordinates":[3.2397383,48.4148078]},"properties":{"mairie":"MAIRIE DE BRAY-SUR-SEINE","label_vvf":"1 fleur","adresse_1":"H\u00f4tel de Ville","adresse_2":"Place du G\u00e9n\u00e9ral de Gaulle","boite_postale":null,"departement":77.0,"libgeo":"Seine-et-Marne","code_postal":77480.0,"ville":"BRAY SUR SEINE"}},{"type":"Feature","geometry":{"type":"Point","coordinates":[2.2599118,49.0049828]},"properties":{"mairie":"MAIRIE DE SANNOIS","label_vvf":"3 fleurs","adresse_1":"H\u00f4tel de Ville","adresse_2":"Place du G\u00e9n\u00e9ral Leclerc","boite_postale":null,"departement":95.0,"libgeo":"Val-d'Oise","code_postal":95110.0,"ville":"SANNOIS"}},{"type":"Feature","geometry":{"type":"Point","coordinates":[2.3478216,48.7709625]},"properties":{"mairie":"MAIRIE DE CHEVILLY-LARUE","label_vvf":"2 fleurs","adresse_1":"H\u00f4tel de Ville","adresse_2":"88 avenue du G\u00e9n\u00e9ral de Gaulle","boite_postale":null,"departement":94.0,"libgeo":"Val-de-Marne","code_postal":94550.0,"ville":"CHEVILLY LARUE"}},{"type":"Feature","geometry":{"type":"Point","coordinates":[2.6596563,48.8278965]},"properties":{"mairie":"MAIRIE DE CROISSY BEAUBOURG","label_vvf":"3 fleurs","adresse_1":"H\u00f4tel de Ville","adresse_2":"30 rue de Paris","boite_postale":null,"departement":77.0,"libgeo":"Seine-et-Marne","code_postal":77183.0,"ville":"CROISSY BEAUBOURG"}},{"type":"Feature","geometry":{"type":"Point","coordinates":[2.9563587,48.3847375]},"properties":{"mairie":"MAIRIE DE MONTEREAU-FAULT-YONNE","label_vvf":"3 fleurs","adresse_1":"H\u00f4tel de Ville","adresse_2":"54 rue Jean Jaur\u00e8s","boite_postale":null,"departement":77.0,"libgeo":"Seine-et-Marne","code_postal":77130.0,"ville":"MONTEREAU FAULT YONNE"}},{"type":"Feature","geometry":{"type":"Point","coordinates":[2.1870953,48.8431302]},"properties":{"mairie":"MAIRIE DE GARCHES","label_vvf":"3 fleurs","adresse_1":"H\u00f4tel de Ville","adresse_2":"2 rue Claude Liard","boite_postale":null,"departement":92.0,"libgeo":"Hauts-de-Seine","code_postal":92380.0,"ville":"GARCHES"}},{"type":"Feature","geometry":{"type":"Point","coordinates":[2.3339090000000002,48.79463]},"properties":{"mairie":"MAIRIE DE CACHAN","label_vvf":"3 fleurs","adresse_1":"H\u00f4tel de Ville","adresse_2":"Square de la Lib\u00e9ration","boite_postale":"BP 130","departement":94.0,"libgeo":"Val-de-Marne","code_postal":94234.0,"ville":"CACHAN CEDEX"}},{"type":"Feature","geometry":{"type":"Point","coordinates":[2.2885144,48.7791971]},"properties":{"mairie":"MAIRIE DE SCEAUX","label_vvf":"2 fleurs","adresse_1":"H\u00f4tel de Ville","adresse_2":"122 rue Houdan","boite_postale":null,"departement":92.0,"libgeo":"Hauts-de-Seine","code_postal":92330.0,"ville":"SCEAUX"}},{"type":"Feature","geometry":{"type":"Point","coordinates":[3.0011501,48.8032826]},"properties":{"mairie":"MAIRIE DE FAREMOUTIERS","label_vvf":"2 fleurs","adresse_1":"H\u00f4tel de Ville","adresse_2":"Avenue Victor Massoul","boite_postale":null,"departement":77.0,"libgeo":"Seine-et-Marne","code_postal":77515.0,"ville":"FAREMOUTIERS"}},{"type":"Feature","geometry":{"type":"Point","coordinates":[2.4997758,48.7524098]},"properties":{"mairie":"MAIRIE DE MAROLLES-EN-BRIE (94)","label_vvf":"3 fleurs","adresse_1":"H\u00f4tel de Ville","adresse_2":"Place Charles de Gaulle","boite_postale":null,"departement":94.0,"libgeo":"Val-de-Marne","code_postal":94440.0,"ville":"MAROLLES-EN-BRIE"}},{"type":"Feature","geometry":{"type":"Point","coordinates":[2.4963165,48.6131403]},"properties":{"mairie":"MAIRIE DE SAINT-PIERRE-DU-PERRAY","label_vvf":"1 fleur","adresse_1":"H\u00f4tel de Ville","adresse_2":"2 avenue des Jasmins","boite_postale":null,"departement":91.0,"libgeo":"Essonne","code_postal":91280.0,"ville":"SAINT PIERRE DU PERRAY"}},{"type":"Feature","geometry":{"type":"Point","coordinates":[2.4202668,48.9896288]},"properties":{"mairie":"MAIRIE D'ARNOUVILLE","label_vvf":"3 fleurs","adresse_1":"H\u00f4tel de Ville","adresse_2":"15-17 rue Robert Schuman","boite_postale":"CS 20101","departement":95.0,"libgeo":"Val-d'Oise","code_postal":95400.0,"ville":"ARNOUVILLE"}},{"type":"Feature","geometry":{"type":"Point","coordinates":[2.8776526000000002,48.9781166]},"properties":{"mairie":"MAIRIE DE CREGY-LES-MEAUX","label_vvf":"2 fleurs","adresse_1":"H\u00f4tel de Ville","adresse_2":"23 rue Jean Jaur\u00e8s","boite_postale":null,"departement":77.0,"libgeo":"Seine-et-Marne","code_postal":77124.0,"ville":"CREGY LES MEAUX"}},{"type":"Feature","geometry":{"type":"Point","coordinates":[2.1371357,48.8486863]},"properties":{"mairie":"MAIRIE DE LA CELLE-SAINT-CLOUD","label_vvf":"3 fleurs","adresse_1":"H\u00f4tel de Ville","adresse_2":"8E avenue Charles de Gaulle","boite_postale":null,"departement":78.0,"libgeo":"Yvelines","code_postal":78170.0,"ville":"LA CELLE-SAINT-CLOUD"}},{"type":"Feature","geometry":{"type":"Point","coordinates":[2.3014858,48.8211267]},"properties":{"mairie":"MAIRIE DE MALAKOFF","label_vvf":"3 fleurs","adresse_1":"H\u00f4tel de Ville","adresse_2":"1 place du 11 Novembre","boite_postale":null,"departement":92.0,"libgeo":"Hauts-de-Seine","code_postal":92240.0,"ville":"MALAKOFF"}},{"type":"Feature","geometry":{"type":"Point","coordinates":[2.3207485,48.7024611]},"properties":{"mairie":"MAIRIE DE WISSOUS","label_vvf":"1 fleur","adresse_1":"H\u00f4tel de Ville","adresse_2":"Place de la Lib\u00e9ration","boite_postale":null,"departement":91.0,"libgeo":"Essonne","code_postal":91320.0,"ville":"WISSOUS"}},{"type":"Feature","geometry":{"type":"Point","coordinates":[2.0697246,48.9606335]},